{
 "source": "wikidata-p964",
 "sourceVersion": "wikidata-2026-07-20",
 "attribution": "Austrian municipalities: Wikidata (CC0), Gemeindekennziffer per Statistik Austria.",
 "units": [
  {
   "externalId": "70616",
   "name": "Pettneu am Arlberg",
   "aliases": [],
   "stateCode": "7",
   "stateName": "Tirol",
   "districtCode": "706",
   "districtName": "Bezirk Landeck",
   "population": 1494,
   "areaKm2": 56.8,
   "centroid": {
    "latitude": 47.148333333,
    "longitude": 10.341666666
   },
   "settlementClass": null
  },
  {
   "externalId": "30201",
   "name": "St. Pölten",
   "aliases": [],
   "stateCode": "3",
   "stateName": "Niederösterreich",
   "districtCode": "302",
   "districtName": "Niederösterreich",
   "population": 55514,
   "areaKm2": 108.44,
   "centroid": {
    "latitude": 48.2,
    "longitude": 15.616666666
   },
   "settlementClass": null
  },
  {
   "externalId": "70934",
   "name": "Tux",
   "aliases": [],
   "stateCode": "7",
   "stateName": "Tirol",
   "districtCode": "709",
   "districtName": "Bezirk Schwaz",
   "population": 1924,
   "areaKm2": 111.1,
   "centroid": {
    "latitude": 47.15,
    "longitude": 11.75
   },
   "settlementClass": null
  },
  {
   "externalId": "61743",
   "name": "Rettenegg",
   "aliases": [],
   "stateCode": "6",
   "stateName": "Steiermark",
   "districtCode": "617",
   "districtName": "Bezirk Weiz",
   "population": 741,
   "areaKm2": 78.87,
   "centroid": {
    "latitude": 47.525833333,
    "longitude": 15.780277777
   },
   "settlementClass": null
  },
  {
   "externalId": "41740",
   "name": "Steinbach am Attersee",
   "aliases": [],
   "stateCode": "4",
   "stateName": "Oberösterreich",
   "districtCode": "417",
   "districtName": "Bezirk Vöcklabruck",
   "population": 866,
   "areaKm2": 61.81,
   "centroid": {
    "latitude": 47.831944444,
    "longitude": 13.55
   },
   "settlementClass": null
  },
  {
   "externalId": "31514",
   "name": "Kilb",
   "aliases": [],
   "stateCode": "3",
   "stateName": "Niederösterreich",
   "districtCode": "315",
   "districtName": "Bezirk Melk",
   "population": 2595,
   "areaKm2": 45.18,
   "centroid": {
    "latitude": 48.1,
    "longitude": 15.405555555
   },
   "settlementClass": null
  },
  {
   "externalId": "31614",
   "name": "Großebersdorf",
   "aliases": [],
   "stateCode": "3",
   "stateName": "Niederösterreich",
   "districtCode": "316",
   "districtName": "Bezirk Mistelbach",
   "population": 2236,
   "areaKm2": 18.03,
   "centroid": {
    "latitude": 48.362222222,
    "longitude": 16.469166666
   },
   "settlementClass": null
  },
  {
   "externalId": "62243",
   "name": "Sankt Johann bei Herberstein",
   "aliases": [],
   "stateCode": "6",
   "stateName": "Steiermark",
   "districtCode": "622",
   "districtName": "Bezirk Hartberg",
   "population": 381,
   "areaKm2": null,
   "centroid": {
    "latitude": 47.210833333,
    "longitude": 15.823611111
   },
   "settlementClass": null
  },
  {
   "externalId": "31805",
   "name": "Breitenstein",
   "aliases": [],
   "stateCode": "3",
   "stateName": "Niederösterreich",
   "districtCode": "318",
   "districtName": "Bezirk Neunkirchen",
   "population": 318,
   "areaKm2": 20.29,
   "centroid": {
    "latitude": 47.661388888,
    "longitude": 15.824166666
   },
   "settlementClass": null
  },
  {
   "externalId": "70329",
   "name": "Mils",
   "aliases": [],
   "stateCode": "7",
   "stateName": "Tirol",
   "districtCode": "703",
   "districtName": "Bezirk Innsbruck-Land",
   "population": 4549,
   "areaKm2": 6.92,
   "centroid": {
    "latitude": 47.286388888,
    "longitude": 11.526666666
   },
   "settlementClass": null
  },
  {
   "externalId": "10101",
   "name": "Eisenstadt",
   "aliases": [],
   "stateCode": "1",
   "stateName": "Burgenland",
   "districtCode": "101",
   "districtName": "Burgenland",
   "population": 14476,
   "areaKm2": 42.88,
   "centroid": {
    "latitude": 47.845649,
    "longitude": 16.52327
   },
   "settlementClass": null
  },
  {
   "externalId": "20812",
   "name": "Ruden",
   "aliases": [],
   "stateCode": "2",
   "stateName": "Kärnten",
   "districtCode": "208",
   "districtName": "Bezirk Völkermarkt",
   "population": 1530,
   "areaKm2": 42.43,
   "centroid": {
    "latitude": 46.656388888,
    "longitude": 14.769722222
   },
   "settlementClass": null
  },
  {
   "externalId": "40435",
   "name": "St. Georgen am Fillmannsbach",
   "aliases": [],
   "stateCode": "4",
   "stateName": "Oberösterreich",
   "districtCode": "404",
   "districtName": "Bezirk Braunau",
   "population": 404,
   "areaKm2": 7.21,
   "centroid": {
    "latitude": 48.125,
    "longitude": 13.019444444
   },
   "settlementClass": null
  },
  {
   "externalId": "41120",
   "name": "St. Georgen an der Gusen",
   "aliases": [],
   "stateCode": "4",
   "stateName": "Oberösterreich",
   "districtCode": "411",
   "districtName": "Bezirk Perg",
   "population": 4119,
   "areaKm2": 7.12,
   "centroid": {
    "latitude": 48.271666666,
    "longitude": 14.448333333
   },
   "settlementClass": null
  },
  {
   "externalId": "40404",
   "name": "Braunau am Inn",
   "aliases": [],
   "stateCode": "4",
   "stateName": "Oberösterreich",
   "districtCode": "404",
   "districtName": "Bezirk Braunau",
   "population": 17095,
   "areaKm2": 24.84,
   "centroid": {
    "latitude": 48.258333333,
    "longitude": 13.033333333
   },
   "settlementClass": null
  },
  {
   "externalId": "30101",
   "name": "Krems",
   "aliases": [],
   "stateCode": "3",
   "stateName": "Niederösterreich",
   "districtCode": "301",
   "districtName": "Niederösterreich",
   "population": 25272,
   "areaKm2": 51.66,
   "centroid": {
    "latitude": 48.416666666,
    "longitude": 15.616666666
   },
   "settlementClass": null
  },
  {
   "externalId": "30401",
   "name": "Wiener Neustadt",
   "aliases": [],
   "stateCode": "3",
   "stateName": "Niederösterreich",
   "districtCode": "304",
   "districtName": "Niederösterreich",
   "population": 44461,
   "areaKm2": 60.94,
   "centroid": {
    "latitude": 47.816666666,
    "longitude": 16.25
   },
   "settlementClass": null
  },
  {
   "externalId": "40709",
   "name": "Hallstatt",
   "aliases": [],
   "stateCode": "4",
   "stateName": "Oberösterreich",
   "districtCode": "407",
   "districtName": "Bezirk Gmunden",
   "population": 778,
   "areaKm2": 59.8,
   "centroid": {
    "latitude": 47.555833333,
    "longitude": 13.646666666
   },
   "settlementClass": null
  },
  {
   "externalId": "50422",
   "name": "Untertauern",
   "aliases": [],
   "stateCode": "5",
   "stateName": "Salzburg",
   "districtCode": "504",
   "districtName": "Bezirk St. Johann im Pongau",
   "population": 466,
   "areaKm2": 71.68,
   "centroid": {
    "latitude": 47.302777777,
    "longitude": 13.505555555
   },
   "settlementClass": null
  },
  {
   "externalId": "61732",
   "name": "Naintsch",
   "aliases": [],
   "stateCode": "6",
   "stateName": "Steiermark",
   "districtCode": "617",
   "districtName": "Anger",
   "population": 596,
   "areaKm2": 27.58,
   "centroid": {
    "latitude": 47.337777777,
    "longitude": 15.609722222
   },
   "settlementClass": null
  },
  {
   "externalId": "31037",
   "name": "Retz",
   "aliases": [],
   "stateCode": "3",
   "stateName": "Niederösterreich",
   "districtCode": "310",
   "districtName": "Bezirk Hollabrunn",
   "population": 4249,
   "areaKm2": 45.01,
   "centroid": {
    "latitude": 48.75692,
    "longitude": 15.95133
   },
   "settlementClass": null
  },
  {
   "externalId": "31804",
   "name": "Breitenau",
   "aliases": [],
   "stateCode": "3",
   "stateName": "Niederösterreich",
   "districtCode": "318",
   "districtName": "Bezirk Neunkirchen",
   "population": 1576,
   "areaKm2": 9.63,
   "centroid": {
    "latitude": 47.733333333,
    "longitude": 16.15
   },
   "settlementClass": null
  },
  {
   "externalId": "10818",
   "name": "Piringsdorf",
   "aliases": [],
   "stateCode": "1",
   "stateName": "Burgenland",
   "districtCode": "108",
   "districtName": "Bezirk Oberpullendorf",
   "population": 832,
   "areaKm2": 16.1,
   "centroid": {
    "latitude": 47.448888888,
    "longitude": 16.418333333
   },
   "settlementClass": null
  },
  {
   "externalId": "40601",
   "name": "Freistadt",
   "aliases": [],
   "stateCode": "4",
   "stateName": "Oberösterreich",
   "districtCode": "406",
   "districtName": "Bezirk Freistadt",
   "population": 7909,
   "areaKm2": 12.88,
   "centroid": {
    "latitude": 48.511666666,
    "longitude": 14.506111111
   },
   "settlementClass": null
  },
  {
   "externalId": "70630",
   "name": "Zams",
   "aliases": [],
   "stateCode": "7",
   "stateName": "Tirol",
   "districtCode": "706",
   "districtName": "Bezirk Landeck",
   "population": 3409,
   "areaKm2": 125.04,
   "centroid": {
    "latitude": 47.157777777,
    "longitude": 10.589444444
   },
   "settlementClass": null
  },
  {
   "externalId": "21004",
   "name": "Gnesau",
   "aliases": [],
   "stateCode": "2",
   "stateName": "Kärnten",
   "districtCode": "210",
   "districtName": "Bezirk Feldkirchen",
   "population": 1034,
   "areaKm2": 78.67,
   "centroid": {
    "latitude": 46.775,
    "longitude": 13.966666666
   },
   "settlementClass": null
  },
  {
   "externalId": "31216",
   "name": "Leobendorf",
   "aliases": [],
   "stateCode": "3",
   "stateName": "Niederösterreich",
   "districtCode": "312",
   "districtName": "Bezirk Korneuburg",
   "population": 5265,
   "areaKm2": 29.94,
   "centroid": {
    "latitude": 48.3775,
    "longitude": 16.319444444
   },
   "settlementClass": null
  },
  {
   "externalId": "62383",
   "name": "Mureck",
   "aliases": [],
   "stateCode": "6",
   "stateName": "Steiermark",
   "districtCode": "623",
   "districtName": "Bezirk Südoststeiermark",
   "population": 3551,
   "areaKm2": 38.68,
   "centroid": {
    "latitude": 46.708611111,
    "longitude": 15.772777777
   },
   "settlementClass": null
  },
  {
   "externalId": "50304",
   "name": "Berndorf bei Salzburg",
   "aliases": [],
   "stateCode": "5",
   "stateName": "Salzburg",
   "districtCode": "503",
   "districtName": "Bezirk Salzburg-Umgebung",
   "population": 1689,
   "areaKm2": 14.48,
   "centroid": {
    "latitude": 47.99624,
    "longitude": 13.06171
   },
   "settlementClass": null
  },
  {
   "externalId": "20817",
   "name": "Völkermarkt",
   "aliases": [],
   "stateCode": "2",
   "stateName": "Kärnten",
   "districtCode": "208",
   "districtName": "Bezirk Völkermarkt",
   "population": 10946,
   "areaKm2": 137.33,
   "centroid": {
    "latitude": 46.662222222,
    "longitude": 14.634444444
   },
   "settlementClass": null
  },
  {
   "externalId": "31613",
   "name": "Gnadendorf",
   "aliases": [],
   "stateCode": "3",
   "stateName": "Niederösterreich",
   "districtCode": "316",
   "districtName": "Bezirk Mistelbach",
   "population": 1127,
   "areaKm2": 48.26,
   "centroid": {
    "latitude": 48.615833333,
    "longitude": 16.397222222
   },
   "settlementClass": null
  },
  {
   "externalId": "41505",
   "name": "Gaflenz",
   "aliases": [],
   "stateCode": "4",
   "stateName": "Oberösterreich",
   "districtCode": "415",
   "districtName": "Bezirk Steyr-Land",
   "population": 1954,
   "areaKm2": 58.78,
   "centroid": {
    "latitude": 47.89609,
    "longitude": 14.72523
   },
   "settlementClass": null
  },
  {
   "externalId": "41516",
   "name": "Sierning",
   "aliases": [],
   "stateCode": "4",
   "stateName": "Oberösterreich",
   "districtCode": "415",
   "districtName": "Bezirk Steyr-Land",
   "population": 9371,
   "areaKm2": 38.17,
   "centroid": {
    "latitude": 48.044722222,
    "longitude": 14.31
   },
   "settlementClass": null
  },
  {
   "externalId": "62390",
   "name": "Straden",
   "aliases": [],
   "stateCode": "6",
   "stateName": "Steiermark",
   "districtCode": "623",
   "districtName": "Bezirk Südoststeiermark",
   "population": 3601,
   "areaKm2": 19.44,
   "centroid": {
    "latitude": 46.805833333,
    "longitude": 15.871111111
   },
   "settlementClass": null
  },
  {
   "externalId": "40706",
   "name": "Gosau",
   "aliases": [],
   "stateCode": "4",
   "stateName": "Oberösterreich",
   "districtCode": "407",
   "districtName": "Bezirk Gmunden",
   "population": 1792,
   "areaKm2": 113.4,
   "centroid": {
    "latitude": 47.583333333,
    "longitude": 13.533333333
   },
   "settlementClass": null
  },
  {
   "externalId": "40602",
   "name": "Grünbach",
   "aliases": [],
   "stateCode": "4",
   "stateName": "Oberösterreich",
   "districtCode": "406",
   "districtName": "Bezirk Freistadt",
   "population": 1887,
   "areaKm2": 36.05,
   "centroid": {
    "latitude": 48.538888888,
    "longitude": 14.536111111
   },
   "settlementClass": null
  },
  {
   "externalId": "61765",
   "name": "Sankt Ruprecht an der Raab",
   "aliases": [],
   "stateCode": "6",
   "stateName": "Steiermark",
   "districtCode": "617",
   "districtName": "Bezirk Weiz",
   "population": 5300,
   "areaKm2": 41.08,
   "centroid": {
    "latitude": 47.153888888,
    "longitude": 15.662222222
   },
   "settlementClass": null
  },
  {
   "externalId": "80301",
   "name": "Dornbirn",
   "aliases": [],
   "stateCode": "8",
   "stateName": "Vorarlberg",
   "districtCode": "803",
   "districtName": "Bezirk Dornbirn",
   "population": 48067,
   "areaKm2": 120.93,
   "centroid": {
    "latitude": 47.416666666,
    "longitude": 9.75
   },
   "settlementClass": null
  },
  {
   "externalId": "10806",
   "name": "Kaisersdorf",
   "aliases": [],
   "stateCode": "1",
   "stateName": "Burgenland",
   "districtCode": "108",
   "districtName": "Bezirk Oberpullendorf",
   "population": 620,
   "areaKm2": 12.5,
   "centroid": {
    "latitude": 47.534166666,
    "longitude": 16.395833333
   },
   "settlementClass": null
  },
  {
   "externalId": "31106",
   "name": "Gars am Kamp",
   "aliases": [],
   "stateCode": "3",
   "stateName": "Niederösterreich",
   "districtCode": "311",
   "districtName": "Bezirk Horn",
   "population": 3534,
   "areaKm2": 50.46,
   "centroid": {
    "latitude": 48.599166666,
    "longitude": 15.663333333
   },
   "settlementClass": null
  },
  {
   "externalId": "31119",
   "name": "Röhrenbach",
   "aliases": [],
   "stateCode": "3",
   "stateName": "Niederösterreich",
   "districtCode": "311",
   "districtName": "Bezirk Horn",
   "population": 522,
   "areaKm2": 25.12,
   "centroid": {
    "latitude": 48.657222222,
    "longitude": 15.513055555
   },
   "settlementClass": null
  },
  {
   "externalId": "62125",
   "name": "Pernegg an der Mur",
   "aliases": [],
   "stateCode": "6",
   "stateName": "Steiermark",
   "districtCode": "621",
   "districtName": "Bezirk Bruck-Mürzzuschlag",
   "population": 2356,
   "areaKm2": 86.05,
   "centroid": {
    "latitude": 47.366666666,
    "longitude": 15.35
   },
   "settlementClass": null
  },
  {
   "externalId": "61423",
   "name": "Sankt Lorenzen bei Scheifling",
   "aliases": [],
   "stateCode": "6",
   "stateName": "Steiermark",
   "districtCode": "614",
   "districtName": "Bezirk Murau",
   "population": 635,
   "areaKm2": 41.99,
   "centroid": {
    "latitude": 47.145555555,
    "longitude": 14.405833333
   },
   "settlementClass": null
  },
  {
   "externalId": "62131",
   "name": "Spital am Semmering",
   "aliases": [],
   "stateCode": "6",
   "stateName": "Steiermark",
   "districtCode": "621",
   "districtName": "Bezirk Bruck-Mürzzuschlag",
   "population": 1595,
   "areaKm2": 72.59,
   "centroid": {
    "latitude": 47.616111111,
    "longitude": 15.753888888
   },
   "settlementClass": null
  },
  {
   "externalId": "50614",
   "name": "Neukirchen am Großvenediger",
   "aliases": [],
   "stateCode": "5",
   "stateName": "Salzburg",
   "districtCode": "506",
   "districtName": "Bezirk Zell am See",
   "population": 2517,
   "areaKm2": 165.86,
   "centroid": {
    "latitude": 47.25,
    "longitude": 12.266666666
   },
   "settlementClass": null
  },
  {
   "externalId": "60319",
   "name": "Limberg bei Wies",
   "aliases": [],
   "stateCode": "6",
   "stateName": "Steiermark",
   "districtCode": "603",
   "districtName": "Bezirk Deutschlandsberg",
   "population": null,
   "areaKm2": 7.67,
   "centroid": {
    "latitude": 46.744166666,
    "longitude": 15.230555555
   },
   "settlementClass": null
  },
  {
   "externalId": "40301",
   "name": "Wels",
   "aliases": [],
   "stateCode": "4",
   "stateName": "Oberösterreich",
   "districtCode": "403",
   "districtName": "Oberösterreich",
   "population": 65303,
   "areaKm2": 45.92,
   "centroid": {
    "latitude": 48.15,
    "longitude": 14.016666666
   },
   "settlementClass": null
  },
  {
   "externalId": "61408",
   "name": "Laßnitz bei Murau",
   "aliases": [],
   "stateCode": "6",
   "stateName": "Steiermark",
   "districtCode": "614",
   "districtName": "Bezirk Murau",
   "population": 1039,
   "areaKm2": 45.55,
   "centroid": {
    "latitude": 47.073055555,
    "longitude": 14.195
   },
   "settlementClass": null
  },
  {
   "externalId": "80404",
   "name": "Feldkirch",
   "aliases": [],
   "stateCode": "8",
   "stateName": "Vorarlberg",
   "districtCode": "804",
   "districtName": "Bezirk Feldkirch",
   "population": 33420,
   "areaKm2": 34.34,
   "centroid": {
    "latitude": 47.238055555,
    "longitude": 9.598333333
   },
   "settlementClass": null
  },
  {
   "externalId": "50619",
   "name": "Saalfelden am Steinernen Meer",
   "aliases": [],
   "stateCode": "5",
   "stateName": "Salzburg",
   "districtCode": "506",
   "districtName": "Bezirk Zell am See",
   "population": 16700,
   "areaKm2": 118.35,
   "centroid": {
    "latitude": 47.426944444,
    "longitude": 12.848333333
   },
   "settlementClass": null
  },
  {
   "externalId": "80211",
   "name": "Egg",
   "aliases": [],
   "stateCode": "8",
   "stateName": "Vorarlberg",
   "districtCode": "802",
   "districtName": "Bezirk Bregenz",
   "population": 3774,
   "areaKm2": 65.37,
   "centroid": {
    "latitude": 47.431944444,
    "longitude": 9.895555555
   },
   "settlementClass": null
  },
  {
   "externalId": "50515",
   "name": "Zederhaus",
   "aliases": [],
   "stateCode": "5",
   "stateName": "Salzburg",
   "districtCode": "505",
   "districtName": "Bezirk Tamsweg",
   "population": 1196,
   "areaKm2": 130.55,
   "centroid": {
    "latitude": 47.15,
    "longitude": 13.516666666
   },
   "settlementClass": null
  },
  {
   "externalId": "30544",
   "name": "Zeillern",
   "aliases": [],
   "stateCode": "3",
   "stateName": "Niederösterreich",
   "districtCode": "305",
   "districtName": "Bezirk Amstetten",
   "population": 1865,
   "areaKm2": 21.57,
   "centroid": {
    "latitude": 48.13,
    "longitude": 14.808055555
   },
   "settlementClass": null
  },
  {
   "externalId": "32140",
   "name": "Zeiselmauer-Wolfpassing",
   "aliases": [],
   "stateCode": "3",
   "stateName": "Niederösterreich",
   "districtCode": "321",
   "districtName": "Bezirk Tulln",
   "population": 2302,
   "areaKm2": 12.69,
   "centroid": {
    "latitude": 48.319444444,
    "longitude": 16.175
   },
   "settlementClass": null
  },
  {
   "externalId": "40714",
   "name": "Pinsdorf",
   "aliases": [],
   "stateCode": "4",
   "stateName": "Oberösterreich",
   "districtCode": "407",
   "districtName": "Bezirk Gmunden",
   "population": 3849,
   "areaKm2": 12.47,
   "centroid": {
    "latitude": 47.930277777,
    "longitude": 13.766944444
   },
   "settlementClass": null
  },
  {
   "externalId": "31609",
   "name": "Fallbach",
   "aliases": [],
   "stateCode": "3",
   "stateName": "Niederösterreich",
   "districtCode": "316",
   "districtName": "Bezirk Mistelbach",
   "population": 819,
   "areaKm2": 30.43,
   "centroid": {
    "latitude": 48.65,
    "longitude": 16.416666666
   },
   "settlementClass": null
  },
  {
   "externalId": "20632",
   "name": "Rennweg am Katschberg",
   "aliases": [],
   "stateCode": "2",
   "stateName": "Kärnten",
   "districtCode": "206",
   "districtName": "Bezirk Spittal an der Drau",
   "population": 1754,
   "areaKm2": 120.82,
   "centroid": {
    "latitude": 47.016666666,
    "longitude": 13.616666666
   },
   "settlementClass": null
  },
  {
   "externalId": "70710",
   "name": "Innervillgraten",
   "aliases": [],
   "stateCode": "7",
   "stateName": "Tirol",
   "districtCode": "707",
   "districtName": "Bezirk Lienz",
   "population": 938,
   "areaKm2": 87.8,
   "centroid": {
    "latitude": 46.806666666,
    "longitude": 12.373055555
   },
   "settlementClass": null
  },
  {
   "externalId": "31550",
   "name": "Zelking-Matzleinsdorf",
   "aliases": [],
   "stateCode": "3",
   "stateName": "Niederösterreich",
   "districtCode": "315",
   "districtName": "Bezirk Melk",
   "population": 1214,
   "areaKm2": 21.19,
   "centroid": {
    "latitude": 48.183333333,
    "longitude": 15.258333333
   },
   "settlementClass": null
  },
  {
   "externalId": "20441",
   "name": "Zell",
   "aliases": [],
   "stateCode": "2",
   "stateName": "Kärnten",
   "districtCode": "204",
   "districtName": "Bezirk Klagenfurt-Land",
   "population": 609,
   "areaKm2": 75.3,
   "centroid": {
    "latitude": 46.472222222,
    "longitude": 14.388888888
   },
   "settlementClass": null
  },
  {
   "externalId": "62220",
   "name": "Hartberg Umgebung",
   "aliases": [],
   "stateCode": "6",
   "stateName": "Steiermark",
   "districtCode": "622",
   "districtName": "Bezirk Hartberg-Fürstenfeld",
   "population": 2248,
   "areaKm2": 30.42,
   "centroid": {
    "latitude": 47.2725,
    "longitude": 15.958611111
   },
   "settlementClass": null
  },
  {
   "externalId": "41751",
   "name": "Zell am Moos",
   "aliases": [],
   "stateCode": "4",
   "stateName": "Oberösterreich",
   "districtCode": "417",
   "districtName": "Bezirk Vöcklabruck",
   "population": 1575,
   "areaKm2": 24.46,
   "centroid": {
    "latitude": 47.900277777,
    "longitude": 13.316944444
   },
   "settlementClass": null
  },
  {
   "externalId": "41752",
   "name": "Zell am Pettenfirst",
   "aliases": [],
   "stateCode": "4",
   "stateName": "Oberösterreich",
   "districtCode": "417",
   "districtName": "Bezirk Vöcklabruck",
   "population": 1236,
   "areaKm2": 13.67,
   "centroid": {
    "latitude": 48.078333333,
    "longitude": 13.6
   },
   "settlementClass": null
  },
  {
   "externalId": "70940",
   "name": "Zell am Ziller",
   "aliases": [],
   "stateCode": "7",
   "stateName": "Tirol",
   "districtCode": "709",
   "districtName": "Bezirk Schwaz",
   "population": 1716,
   "areaKm2": 2.44,
   "centroid": {
    "latitude": 47.233055555,
    "longitude": 11.881944444
   },
   "settlementClass": null
  },
  {
   "externalId": "50628",
   "name": "Zell am See",
   "aliases": [],
   "stateCode": "5",
   "stateName": "Salzburg",
   "districtCode": "506",
   "districtName": "Bezirk Zell am See",
   "population": 10227,
   "areaKm2": 55.17,
   "centroid": {
    "latitude": 47.323333333,
    "longitude": 12.798055555
   },
   "settlementClass": null
  },
  {
   "externalId": "41430",
   "name": "Zell an der Pram",
   "aliases": [],
   "stateCode": "4",
   "stateName": "Oberösterreich",
   "districtCode": "414",
   "districtName": "Bezirk Schärding",
   "population": 2021,
   "areaKm2": 23.37,
   "centroid": {
    "latitude": 48.316666666,
    "longitude": 13.633333333
   },
   "settlementClass": null
  },
  {
   "externalId": "70941",
   "name": "Zellberg",
   "aliases": [],
   "stateCode": "7",
   "stateName": "Tirol",
   "districtCode": "709",
   "districtName": "Bezirk Schwaz",
   "population": 680,
   "areaKm2": 12.13,
   "centroid": {
    "latitude": 47.231111111,
    "longitude": 11.871944444
   },
   "settlementClass": null
  },
  {
   "externalId": "10918",
   "name": "Pinkafeld",
   "aliases": [],
   "stateCode": "1",
   "stateName": "Burgenland",
   "districtCode": "109",
   "districtName": "Bezirk Oberwart",
   "population": 5779,
   "areaKm2": 27.43,
   "centroid": {
    "latitude": 47.371666666,
    "longitude": 16.121944444
   },
   "settlementClass": null
  },
  {
   "externalId": "50310",
   "name": "Eugendorf",
   "aliases": [],
   "stateCode": "5",
   "stateName": "Salzburg",
   "districtCode": "503",
   "districtName": "Bezirk Salzburg-Umgebung",
   "population": 6937,
   "areaKm2": 29.04,
   "centroid": {
    "latitude": 47.866944444,
    "longitude": 13.124166666
   },
   "settlementClass": null
  },
  {
   "externalId": "61203",
   "name": "Aigen im Ennstal",
   "aliases": [],
   "stateCode": "6",
   "stateName": "Steiermark",
   "districtCode": "612",
   "districtName": "Bezirk Liezen",
   "population": 2722,
   "areaKm2": 86.4,
   "centroid": {
    "latitude": 47.520416666,
    "longitude": 14.143166666
   },
   "settlementClass": null
  },
  {
   "externalId": "10928",
   "name": "Wolfau",
   "aliases": [],
   "stateCode": "1",
   "stateName": "Burgenland",
   "districtCode": "109",
   "districtName": "Bezirk Oberwart",
   "population": 1436,
   "areaKm2": 15.02,
   "centroid": {
    "latitude": 47.2575,
    "longitude": 16.096388888
   },
   "settlementClass": null
  },
  {
   "externalId": "90901",
   "name": "Alsergrund",
   "aliases": [],
   "stateCode": "9",
   "stateName": "Wien",
   "districtCode": "909",
   "districtName": "Wien",
   "population": 41631,
   "areaKm2": 2.99,
   "centroid": {
    "latitude": 48.225277777,
    "longitude": 16.356944444
   },
   "settlementClass": null
  },
  {
   "externalId": "41317",
   "name": "Kollerschlag",
   "aliases": [],
   "stateCode": "4",
   "stateName": "Oberösterreich",
   "districtCode": "413",
   "districtName": "Bezirk Rohrbach",
   "population": 1542,
   "areaKm2": 17,
   "centroid": {
    "latitude": 48.605833333,
    "longitude": 13.842777777
   },
   "settlementClass": null
  },
  {
   "externalId": "61109",
   "name": "Mautern in Steiermark",
   "aliases": [],
   "stateCode": "6",
   "stateName": "Steiermark",
   "districtCode": "611",
   "districtName": "Bezirk Leoben",
   "population": 1766,
   "areaKm2": 108.7,
   "centroid": {
    "latitude": 47.4,
    "longitude": 14.833333333
   },
   "settlementClass": null
  },
  {
   "externalId": "92201",
   "name": "Donaustadt",
   "aliases": [],
   "stateCode": "9",
   "stateName": "Wien",
   "districtCode": "922",
   "districtName": "Wien",
   "population": 220794,
   "areaKm2": 102.29,
   "centroid": {
    "latitude": 48.2181,
    "longitude": 16.4831
   },
   "settlementClass": null
  },
  {
   "externalId": "70619",
   "name": "Prutz",
   "aliases": [],
   "stateCode": "7",
   "stateName": "Tirol",
   "districtCode": "706",
   "districtName": "Bezirk Landeck",
   "population": 1884,
   "areaKm2": 9.74,
   "centroid": {
    "latitude": 47.076388888,
    "longitude": 10.663611111
   },
   "settlementClass": null
  },
  {
   "externalId": "50335",
   "name": "Straßwalchen",
   "aliases": [],
   "stateCode": "5",
   "stateName": "Salzburg",
   "districtCode": "503",
   "districtName": "Bezirk Salzburg-Umgebung",
   "population": 7420,
   "areaKm2": 44.53,
   "centroid": {
    "latitude": 47.98,
    "longitude": 13.254722222
   },
   "settlementClass": null
  },
  {
   "externalId": "41503",
   "name": "Bad Hall",
   "aliases": [],
   "stateCode": "4",
   "stateName": "Oberösterreich",
   "districtCode": "415",
   "districtName": "Bezirk Steyr-Land",
   "population": 5296,
   "areaKm2": 13.36,
   "centroid": {
    "latitude": 48.034444444,
    "longitude": 14.209722222
   },
   "settlementClass": null
  },
  {
   "externalId": "90201",
   "name": "Leopoldstadt",
   "aliases": [],
   "stateCode": "9",
   "stateName": "Wien",
   "districtCode": "902",
   "districtName": "Wien",
   "population": 110100,
   "areaKm2": 19.27,
   "centroid": {
    "latitude": 48.210277777,
    "longitude": 16.412222222
   },
   "settlementClass": null
  },
  {
   "externalId": "50420",
   "name": "St. Veit im Pongau",
   "aliases": [],
   "stateCode": "5",
   "stateName": "Salzburg",
   "districtCode": "504",
   "districtName": "Bezirk St. Johann im Pongau",
   "population": 3788,
   "areaKm2": 56.84,
   "centroid": {
    "latitude": 47.330555555,
    "longitude": 13.155555555
   },
   "settlementClass": null
  },
  {
   "externalId": "10201",
   "name": "Rust",
   "aliases": [],
   "stateCode": "1",
   "stateName": "Burgenland",
   "districtCode": "102",
   "districtName": "Burgenland",
   "population": 1984,
   "areaKm2": 20.01,
   "centroid": {
    "latitude": 47.800833333,
    "longitude": 16.675833333
   },
   "settlementClass": null
  },
  {
   "externalId": "30735",
   "name": "Leopoldsdorf",
   "aliases": [],
   "stateCode": "3",
   "stateName": "Niederösterreich",
   "districtCode": "307",
   "districtName": "Bezirk Bruck an der Leitha",
   "population": 5078,
   "areaKm2": 6.95,
   "centroid": {
    "latitude": 48.116667,
    "longitude": 16.4
   },
   "settlementClass": null
  },
  {
   "externalId": "30817",
   "name": "Gänserndorf",
   "aliases": [],
   "stateCode": "3",
   "stateName": "Niederösterreich",
   "districtCode": "308",
   "districtName": "Bezirk Gänserndorf",
   "population": 11404,
   "areaKm2": 30.56,
   "centroid": {
    "latitude": 48.340555555,
    "longitude": 16.7175
   },
   "settlementClass": null
  },
  {
   "externalId": "40718",
   "name": "Traunkirchen",
   "aliases": [],
   "stateCode": "4",
   "stateName": "Oberösterreich",
   "districtCode": "407",
   "districtName": "Bezirk Gmunden",
   "population": 1624,
   "areaKm2": 18.36,
   "centroid": {
    "latitude": 47.84539,
    "longitude": 13.79074
   },
   "settlementClass": null
  },
  {
   "externalId": "10309",
   "name": "Neufeld an der Leitha",
   "aliases": [],
   "stateCode": "1",
   "stateName": "Burgenland",
   "districtCode": "103",
   "districtName": "Bezirk Eisenstadt-Umgebung",
   "population": 3418,
   "areaKm2": 4.2,
   "centroid": {
    "latitude": 47.867777777,
    "longitude": 16.376666666
   },
   "settlementClass": null
  },
  {
   "externalId": "62139",
   "name": "Bruck an der Mur",
   "aliases": [],
   "stateCode": "6",
   "stateName": "Steiermark",
   "districtCode": "621",
   "districtName": "Bezirk Bruck-Mürzzuschlag",
   "population": 15837,
   "areaKm2": 85.43,
   "centroid": {
    "latitude": 47.410555555,
    "longitude": 15.268611111
   },
   "settlementClass": null
  },
  {
   "externalId": "62318",
   "name": "Frannach",
   "aliases": [],
   "stateCode": "6",
   "stateName": "Steiermark",
   "districtCode": "623",
   "districtName": "Pirching am Traubenberg",
   "population": 548,
   "areaKm2": 8.04,
   "centroid": {
    "latitude": 46.913605555,
    "longitude": 15.633669444
   },
   "settlementClass": null
  },
  {
   "externalId": "41005",
   "name": "Enns",
   "aliases": [],
   "stateCode": "4",
   "stateName": "Oberösterreich",
   "districtCode": "410",
   "districtName": "Bezirk Linz-Land",
   "population": 11937,
   "areaKm2": 33.29,
   "centroid": {
    "latitude": 48.216666666,
    "longitude": 14.475
   },
   "settlementClass": null
  },
  {
   "externalId": "41021",
   "name": "Traun",
   "aliases": [],
   "stateCode": "4",
   "stateName": "Oberösterreich",
   "districtCode": "410",
   "districtName": "Bezirk Linz-Land",
   "population": 24477,
   "areaKm2": 15.49,
   "centroid": {
    "latitude": 48.221666666,
    "longitude": 14.239722222
   },
   "settlementClass": null
  },
  {
   "externalId": "41116",
   "name": "Perg",
   "aliases": [],
   "stateCode": "4",
   "stateName": "Oberösterreich",
   "districtCode": "411",
   "districtName": "Bezirk Perg",
   "population": 9459,
   "areaKm2": 26.44,
   "centroid": {
    "latitude": 48.250277777,
    "longitude": 14.633611111
   },
   "settlementClass": null
  },
  {
   "externalId": "40201",
   "name": "Steyr",
   "aliases": [],
   "stateCode": "4",
   "stateName": "Oberösterreich",
   "districtCode": "402",
   "districtName": "Oberösterreich",
   "population": 38034,
   "areaKm2": 26.56,
   "centroid": {
    "latitude": 48.05,
    "longitude": 14.416666666
   },
   "settlementClass": null
  },
  {
   "externalId": "50324",
   "name": "Neumarkt am Wallersee",
   "aliases": [],
   "stateCode": "5",
   "stateName": "Salzburg",
   "districtCode": "503",
   "districtName": "Bezirk Salzburg-Umgebung",
   "population": 6297,
   "areaKm2": 36,
   "centroid": {
    "latitude": 47.945277777,
    "longitude": 13.224722222
   },
   "settlementClass": null
  },
  {
   "externalId": "50417",
   "name": "Radstadt",
   "aliases": [],
   "stateCode": "5",
   "stateName": "Salzburg",
   "districtCode": "504",
   "districtName": "Bezirk St. Johann im Pongau",
   "population": 4823,
   "areaKm2": 60.82,
   "centroid": {
    "latitude": 47.383333333,
    "longitude": 13.466666666
   },
   "settlementClass": null
  },
  {
   "externalId": "70733",
   "name": "Untertilliach",
   "aliases": [],
   "stateCode": "7",
   "stateName": "Tirol",
   "districtCode": "707",
   "districtName": "Bezirk Lienz",
   "population": 237,
   "areaKm2": 36.3,
   "centroid": {
    "latitude": 46.703611111,
    "longitude": 12.6775
   },
   "settlementClass": null
  },
  {
   "externalId": "70512",
   "name": "Kramsach",
   "aliases": [],
   "stateCode": "7",
   "stateName": "Tirol",
   "districtCode": "705",
   "districtName": "Bezirk Kufstein",
   "population": 4891,
   "areaKm2": 26.9,
   "centroid": {
    "latitude": 47.444722222,
    "longitude": 11.881388888
   },
   "settlementClass": null
  },
  {
   "externalId": "50303",
   "name": "Bergheim",
   "aliases": [],
   "stateCode": "5",
   "stateName": "Salzburg",
   "districtCode": "503",
   "districtName": "Bezirk Salzburg-Umgebung",
   "population": 5388,
   "areaKm2": 15.2,
   "centroid": {
    "latitude": 47.840277777,
    "longitude": 13.022222222
   },
   "settlementClass": null
  },
  {
   "externalId": "80218",
   "name": "Hörbranz",
   "aliases": [],
   "stateCode": "8",
   "stateName": "Vorarlberg",
   "districtCode": "802",
   "districtName": "Bezirk Bregenz",
   "population": 6731,
   "areaKm2": 8.74,
   "centroid": {
    "latitude": 47.555277777,
    "longitude": 9.752777777
   },
   "settlementClass": null
  },
  {
   "externalId": "41703",
   "name": "Attnang-Puchheim",
   "aliases": [],
   "stateCode": "4",
   "stateName": "Oberösterreich",
   "districtCode": "417",
   "districtName": "Bezirk Vöcklabruck",
   "population": 8944,
   "areaKm2": 12.32,
   "centroid": {
    "latitude": 48.016666666,
    "longitude": 13.716666666
   },
   "settlementClass": null
  },
  {
   "externalId": "50213",
   "name": "Bad Vigaun",
   "aliases": [],
   "stateCode": "5",
   "stateName": "Salzburg",
   "districtCode": "502",
   "districtName": "Bezirk Hallein",
   "population": 2091,
   "areaKm2": 17.55,
   "centroid": {
    "latitude": 47.666666666,
    "longitude": 13.133333333
   },
   "settlementClass": null
  },
  {
   "externalId": "70717",
   "name": "Matrei in Osttirol",
   "aliases": [],
   "stateCode": "7",
   "stateName": "Tirol",
   "districtCode": "707",
   "districtName": "Bezirk Lienz",
   "population": 4667,
   "areaKm2": 277.77,
   "centroid": {
    "latitude": 47.000555555,
    "longitude": 12.541111111
   },
   "settlementClass": null
  },
  {
   "externalId": "40711",
   "name": "Laakirchen",
   "aliases": [],
   "stateCode": "4",
   "stateName": "Oberösterreich",
   "districtCode": "407",
   "districtName": "Bezirk Gmunden",
   "population": 9861,
   "areaKm2": 32.47,
   "centroid": {
    "latitude": 47.982777777,
    "longitude": 13.824166666
   },
   "settlementClass": null
  },
  {
   "externalId": "70521",
   "name": "Rattenberg",
   "aliases": [],
   "stateCode": "7",
   "stateName": "Tirol",
   "districtCode": "705",
   "districtName": "Bezirk Kufstein",
   "population": 408,
   "areaKm2": 0.11,
   "centroid": {
    "latitude": 47.438888888,
    "longitude": 11.893333333
   },
   "settlementClass": null
  },
  {
   "externalId": "50503",
   "name": "Mariapfarr",
   "aliases": [],
   "stateCode": "5",
   "stateName": "Salzburg",
   "districtCode": "505",
   "districtName": "Bezirk Tamsweg",
   "population": 2375,
   "areaKm2": 47.36,
   "centroid": {
    "latitude": 47.15,
    "longitude": 13.733333333
   },
   "settlementClass": null
  },
  {
   "externalId": "70724",
   "name": "St. Jakob in Defereggen",
   "aliases": [],
   "stateCode": "7",
   "stateName": "Tirol",
   "districtCode": "707",
   "districtName": "Bezirk Lienz",
   "population": 834,
   "areaKm2": 186.1,
   "centroid": {
    "latitude": 46.929166666,
    "longitude": 12.241666666
   },
   "settlementClass": null
  },
  {
   "externalId": "70525",
   "name": "Schwoich",
   "aliases": [],
   "stateCode": "7",
   "stateName": "Tirol",
   "districtCode": "705",
   "districtName": "Bezirk Kufstein",
   "population": 2562,
   "areaKm2": 18.77,
   "centroid": {
    "latitude": 47.55,
    "longitude": 12.133333333
   },
   "settlementClass": null
  },
  {
   "externalId": "91701",
   "name": "Hernals",
   "aliases": [],
   "stateCode": "9",
   "stateName": "Wien",
   "districtCode": "917",
   "districtName": "Wien",
   "population": 56671,
   "areaKm2": 11.35,
   "centroid": {
    "latitude": 48.2325,
    "longitude": 16.2794
   },
   "settlementClass": null
  },
  {
   "externalId": "61204",
   "name": "Altaussee",
   "aliases": [],
   "stateCode": "6",
   "stateName": "Steiermark",
   "districtCode": "612",
   "districtName": "Bezirk Liezen",
   "population": 1913,
   "areaKm2": 92,
   "centroid": {
    "latitude": 47.639444444,
    "longitude": 13.763333333
   },
   "settlementClass": null
  },
  {
   "externalId": "61236",
   "name": "Ramsau am Dachstein",
   "aliases": [],
   "stateCode": "6",
   "stateName": "Steiermark",
   "districtCode": "612",
   "districtName": "Politische Expositur Gröbming",
   "population": 2812,
   "areaKm2": 75.4,
   "centroid": {
    "latitude": 47.421388888,
    "longitude": 13.654722222
   },
   "settlementClass": null
  },
  {
   "externalId": "32318",
   "name": "Lichtenwörth",
   "aliases": [],
   "stateCode": "3",
   "stateName": "Niederösterreich",
   "districtCode": "323",
   "districtName": "Bezirk Wiener Neustadt",
   "population": 2727,
   "areaKm2": 22.91,
   "centroid": {
    "latitude": 47.832,
    "longitude": 16.295694444
   },
   "settlementClass": null
  },
  {
   "externalId": "31906",
   "name": "Frankenfels",
   "aliases": [],
   "stateCode": "3",
   "stateName": "Niederösterreich",
   "districtCode": "319",
   "districtName": "Bezirk St. Pölten",
   "population": 1975,
   "areaKm2": 56.11,
   "centroid": {
    "latitude": 47.966666666,
    "longitude": 15.316666666
   },
   "settlementClass": null
  },
  {
   "externalId": "62040",
   "name": "Judenburg",
   "aliases": [],
   "stateCode": "6",
   "stateName": "Steiermark",
   "districtCode": "620",
   "districtName": "Bezirk Murtal",
   "population": 9614,
   "areaKm2": 63.69,
   "centroid": {
    "latitude": 47.1725,
    "longitude": 14.660277777
   },
   "settlementClass": null
  },
  {
   "externalId": "62029",
   "name": "Sankt Marein bei Knittelfeld",
   "aliases": [],
   "stateCode": "6",
   "stateName": "Steiermark",
   "districtCode": "620",
   "districtName": "Bezirk Murtal",
   "population": 1245,
   "areaKm2": 60.64,
   "centroid": {
    "latitude": 47.271111111,
    "longitude": 14.860555555
   },
   "settlementClass": null
  },
  {
   "externalId": "40622",
   "name": "Unterweitersdorf",
   "aliases": [],
   "stateCode": "4",
   "stateName": "Oberösterreich",
   "districtCode": "406",
   "districtName": "Bezirk Freistadt",
   "population": 2082,
   "areaKm2": 11.4,
   "centroid": {
    "latitude": 48.366666666,
    "longitude": 14.466666666
   },
   "settlementClass": null
  },
  {
   "externalId": "70511",
   "name": "Kirchbichl",
   "aliases": [],
   "stateCode": "7",
   "stateName": "Tirol",
   "districtCode": "705",
   "districtName": "Bezirk Kufstein",
   "population": 5855,
   "areaKm2": 14.97,
   "centroid": {
    "latitude": 47.511111,
    "longitude": 12.086389
   },
   "settlementClass": null
  },
  {
   "externalId": "70508",
   "name": "Ebbs",
   "aliases": [],
   "stateCode": "7",
   "stateName": "Tirol",
   "districtCode": "705",
   "districtName": "Bezirk Kufstein",
   "population": 5601,
   "areaKm2": 40,
   "centroid": {
    "latitude": 47.63,
    "longitude": 12.214722
   },
   "settlementClass": null
  },
  {
   "externalId": "62142",
   "name": "Mariazell",
   "aliases": [],
   "stateCode": "6",
   "stateName": "Steiermark",
   "districtCode": "621",
   "districtName": "Bezirk Bruck-Mürzzuschlag",
   "population": 3813,
   "areaKm2": 414.09,
   "centroid": {
    "latitude": 47.773055555,
    "longitude": 15.316388888
   },
   "settlementClass": null
  },
  {
   "externalId": "50317",
   "name": "Henndorf am Wallersee",
   "aliases": [],
   "stateCode": "5",
   "stateName": "Salzburg",
   "districtCode": "503",
   "districtName": "Bezirk Salzburg-Umgebung",
   "population": 4947,
   "areaKm2": 23.47,
   "centroid": {
    "latitude": 47.89632,
    "longitude": 13.19505
   },
   "settlementClass": null
  },
  {
   "externalId": "50330",
   "name": "St. Gilgen",
   "aliases": [],
   "stateCode": "5",
   "stateName": "Salzburg",
   "districtCode": "503",
   "districtName": "Bezirk Salzburg-Umgebung",
   "population": 3915,
   "areaKm2": 98.67,
   "centroid": {
    "latitude": 47.766666666,
    "longitude": 13.366666666
   },
   "settlementClass": null
  },
  {
   "externalId": "50623",
   "name": "Unken",
   "aliases": [],
   "stateCode": "5",
   "stateName": "Salzburg",
   "districtCode": "506",
   "districtName": "Bezirk Zell am See",
   "population": 1954,
   "areaKm2": 108.81,
   "centroid": {
    "latitude": 47.650277777,
    "longitude": 12.726944444
   },
   "settlementClass": null
  },
  {
   "externalId": "92101",
   "name": "Floridsdorf",
   "aliases": [],
   "stateCode": "9",
   "stateName": "Wien",
   "districtCode": "921",
   "districtName": "Wien",
   "population": 186233,
   "areaKm2": 44.52,
   "centroid": {
    "latitude": 48.283333,
    "longitude": 16.412222
   },
   "settlementClass": null
  },
  {
   "externalId": "70411",
   "name": "Kitzbühel",
   "aliases": [],
   "stateCode": "7",
   "stateName": "Tirol",
   "districtCode": "704",
   "districtName": "Bezirk Kitzbühel",
   "population": 8272,
   "areaKm2": 58.01,
   "centroid": {
    "latitude": 47.446388888,
    "longitude": 12.391944444
   },
   "settlementClass": null
  },
  {
   "externalId": "50328",
   "name": "Plainfeld",
   "aliases": [],
   "stateCode": "5",
   "stateName": "Salzburg",
   "districtCode": "503",
   "districtName": "Bezirk Salzburg-Umgebung",
   "population": 1237,
   "areaKm2": 5.21,
   "centroid": {
    "latitude": 47.833333333,
    "longitude": 13.183333333
   },
   "settlementClass": null
  },
  {
   "externalId": "41738",
   "name": "Schwanenstadt",
   "aliases": [],
   "stateCode": "4",
   "stateName": "Oberösterreich",
   "districtCode": "417",
   "districtName": "Bezirk Vöcklabruck",
   "population": 4264,
   "areaKm2": 2.58,
   "centroid": {
    "latitude": 48.055277777,
    "longitude": 13.775833333
   },
   "settlementClass": null
  },
  {
   "externalId": "50316",
   "name": "Hallwang",
   "aliases": [],
   "stateCode": "5",
   "stateName": "Salzburg",
   "districtCode": "503",
   "districtName": "Bezirk Salzburg-Umgebung",
   "population": 4189,
   "areaKm2": 13.12,
   "centroid": {
    "latitude": 47.85,
    "longitude": 13.066666666
   },
   "settlementClass": null
  },
  {
   "externalId": "50302",
   "name": "Anthering",
   "aliases": [],
   "stateCode": "5",
   "stateName": "Salzburg",
   "districtCode": "503",
   "districtName": "Bezirk Salzburg-Umgebung",
   "population": 3734,
   "areaKm2": 25,
   "centroid": {
    "latitude": 47.866666666,
    "longitude": 13.016666666
   },
   "settlementClass": null
  },
  {
   "externalId": "70520",
   "name": "Radfeld",
   "aliases": [],
   "stateCode": "7",
   "stateName": "Tirol",
   "districtCode": "705",
   "districtName": "Bezirk Kufstein",
   "population": 2551,
   "areaKm2": 14.32,
   "centroid": {
    "latitude": 47.446111111,
    "longitude": 11.911388888
   },
   "settlementClass": null
  },
  {
   "externalId": "92001",
   "name": "Brigittenau",
   "aliases": [],
   "stateCode": "9",
   "stateName": "Wien",
   "districtCode": "920",
   "districtName": "Wien",
   "population": 86930,
   "areaKm2": 5.67,
   "centroid": {
    "latitude": 48.236667,
    "longitude": 16.369444
   },
   "settlementClass": null
  },
  {
   "externalId": "40444",
   "name": "Treubach",
   "aliases": [],
   "stateCode": "4",
   "stateName": "Oberösterreich",
   "districtCode": "404",
   "districtName": "Bezirk Braunau",
   "population": 725,
   "areaKm2": 13.04,
   "centroid": {
    "latitude": 48.195,
    "longitude": 13.213055555
   },
   "settlementClass": null
  },
  {
   "externalId": "50423",
   "name": "Wagrain",
   "aliases": [],
   "stateCode": "5",
   "stateName": "Salzburg",
   "districtCode": "504",
   "districtName": "Bezirk St. Johann im Pongau",
   "population": 3177,
   "areaKm2": 50.55,
   "centroid": {
    "latitude": 47.333333333,
    "longitude": 13.3
   },
   "settlementClass": null
  },
  {
   "externalId": "91601",
   "name": "Ottakring",
   "aliases": [],
   "stateCode": "9",
   "stateName": "Wien",
   "districtCode": "916",
   "districtName": "Wien",
   "population": 102770,
   "areaKm2": 8.65,
   "centroid": {
    "latitude": 48.2125,
    "longitude": 16.3106
   },
   "settlementClass": null
  },
  {
   "externalId": "31818",
   "name": "Neunkirchen",
   "aliases": [],
   "stateCode": "3",
   "stateName": "Niederösterreich",
   "districtCode": "318",
   "districtName": "Bezirk Neunkirchen",
   "population": 12879,
   "areaKm2": 20.3,
   "centroid": {
    "latitude": 47.726944444,
    "longitude": 16.081666666
   },
   "settlementClass": null
  },
  {
   "externalId": "50608",
   "name": "Lend",
   "aliases": [],
   "stateCode": "5",
   "stateName": "Salzburg",
   "districtCode": "506",
   "districtName": "Bezirk Zell am See",
   "population": 1288,
   "areaKm2": 29.37,
   "centroid": {
    "latitude": 47.3,
    "longitude": 13.05
   },
   "settlementClass": null
  },
  {
   "externalId": "50202",
   "name": "Adnet",
   "aliases": [],
   "stateCode": "5",
   "stateName": "Salzburg",
   "districtCode": "502",
   "districtName": "Bezirk Hallein",
   "population": 3557,
   "areaKm2": 30,
   "centroid": {
    "latitude": 47.6965919,
    "longitude": 13.13037873
   },
   "settlementClass": null
  },
  {
   "externalId": "50406",
   "name": "Eben im Pongau",
   "aliases": [],
   "stateCode": "5",
   "stateName": "Salzburg",
   "districtCode": "504",
   "districtName": "Bezirk St. Johann im Pongau",
   "population": 2446,
   "areaKm2": 35.9,
   "centroid": {
    "latitude": 47.4,
    "longitude": 13.4
   },
   "settlementClass": null
  },
  {
   "externalId": "90101",
   "name": "Innere Stadt",
   "aliases": [],
   "stateCode": "9",
   "stateName": "Wien",
   "districtCode": "901",
   "districtName": "Wien",
   "population": 16538,
   "areaKm2": 3.01,
   "centroid": {
    "latitude": 48.209722222,
    "longitude": 16.37
   },
   "settlementClass": null
  },
  {
   "externalId": "91901",
   "name": "Döbling",
   "aliases": [],
   "stateCode": "9",
   "stateName": "Wien",
   "districtCode": "919",
   "districtName": "Wien",
   "population": 75400,
   "areaKm2": 24.9,
   "centroid": {
    "latitude": 48.2664,
    "longitude": 16.3228
   },
   "settlementClass": null
  },
  {
   "externalId": "10312",
   "name": "Purbach am Neusiedler See",
   "aliases": [],
   "stateCode": "1",
   "stateName": "Burgenland",
   "districtCode": "103",
   "districtName": "Bezirk Eisenstadt-Umgebung",
   "population": 2901,
   "areaKm2": 45.84,
   "centroid": {
    "latitude": 47.914722222,
    "longitude": 16.693333333
   },
   "settlementClass": null
  },
  {
   "externalId": "10407",
   "name": "Heiligenbrunn",
   "aliases": [],
   "stateCode": "1",
   "stateName": "Burgenland",
   "districtCode": "104",
   "districtName": "Bezirk Güssing",
   "population": 759,
   "areaKm2": 33.5,
   "centroid": {
    "latitude": 47.026111111,
    "longitude": 16.415555555
   },
   "settlementClass": null
  },
  {
   "externalId": "41225",
   "name": "Ried im Innkreis",
   "aliases": [],
   "stateCode": "4",
   "stateName": "Oberösterreich",
   "districtCode": "412",
   "districtName": "Bezirk Ried",
   "population": 11903,
   "areaKm2": 6.78,
   "centroid": {
    "latitude": 48.21,
    "longitude": 13.489444444
   },
   "settlementClass": null
  },
  {
   "externalId": "70624",
   "name": "Serfaus",
   "aliases": [],
   "stateCode": "7",
   "stateName": "Tirol",
   "districtCode": "706",
   "districtName": "Bezirk Landeck",
   "population": 1265,
   "areaKm2": 59.6,
   "centroid": {
    "latitude": 47.038611111,
    "longitude": 10.605833333
   },
   "settlementClass": null
  },
  {
   "externalId": "30608",
   "name": "Enzesfeld-Lindabrunn",
   "aliases": [],
   "stateCode": "3",
   "stateName": "Niederösterreich",
   "districtCode": "306",
   "districtName": "Bezirk Baden",
   "population": 4174,
   "areaKm2": 15.78,
   "centroid": {
    "latitude": 47.917777777,
    "longitude": 16.185277777
   },
   "settlementClass": null
  },
  {
   "externalId": "90301",
   "name": "Landstraße",
   "aliases": [],
   "stateCode": "9",
   "stateName": "Wien",
   "districtCode": "903",
   "districtName": "Wien",
   "population": 98398,
   "areaKm2": 7.39,
   "centroid": {
    "latitude": 48.196388888,
    "longitude": 16.395833333
   },
   "settlementClass": null
  },
  {
   "externalId": "20501",
   "name": "Althofen",
   "aliases": [],
   "stateCode": "2",
   "stateName": "Kärnten",
   "districtCode": "205",
   "districtName": "Bezirk St. Veit an der Glan",
   "population": 4759,
   "areaKm2": 12.29,
   "centroid": {
    "latitude": 46.866666666,
    "longitude": 14.466666666
   },
   "settlementClass": null
  },
  {
   "externalId": "31901",
   "name": "Altlengbach",
   "aliases": [],
   "stateCode": "3",
   "stateName": "Niederösterreich",
   "districtCode": "319",
   "districtName": "Bezirk St. Pölten",
   "population": 3265,
   "areaKm2": 35.58,
   "centroid": {
    "latitude": 48.15,
    "longitude": 15.916666666
   },
   "settlementClass": null
  },
  {
   "externalId": "31601",
   "name": "Altlichtenwarth",
   "aliases": [],
   "stateCode": "3",
   "stateName": "Niederösterreich",
   "districtCode": "316",
   "districtName": "Bezirk Mistelbach",
   "population": 758,
   "areaKm2": 20.46,
   "centroid": {
    "latitude": 48.647777777,
    "longitude": 16.795833333
   },
   "settlementClass": null
  },
  {
   "externalId": "32519",
   "name": "Altmelon",
   "aliases": [],
   "stateCode": "3",
   "stateName": "Niederösterreich",
   "districtCode": "325",
   "districtName": "Bezirk Zwettl",
   "population": 849,
   "areaKm2": 38.34,
   "centroid": {
    "latitude": 48.45,
    "longitude": 14.966666666
   },
   "settlementClass": null
  },
  {
   "externalId": "40701",
   "name": "Altmünster",
   "aliases": [],
   "stateCode": "4",
   "stateName": "Oberösterreich",
   "districtCode": "407",
   "districtName": "Bezirk Gmunden",
   "population": 9793,
   "areaKm2": 78.93,
   "centroid": {
    "latitude": 47.9,
    "longitude": 13.766666666
   },
   "settlementClass": null
  },
  {
   "externalId": "41401",
   "name": "Altschwendt",
   "aliases": [],
   "stateCode": "4",
   "stateName": "Oberösterreich",
   "districtCode": "414",
   "districtName": "Bezirk Schärding",
   "population": 700,
   "areaKm2": 12.76,
   "centroid": {
    "latitude": 48.316666666,
    "longitude": 13.683333333
   },
   "settlementClass": null
  },
  {
   "externalId": "30902",
   "name": "Amaliendorf-Aalfang",
   "aliases": [],
   "stateCode": "3",
   "stateName": "Niederösterreich",
   "districtCode": "309",
   "districtName": "Bezirk Gmünd",
   "population": 1095,
   "areaKm2": 8.04,
   "centroid": {
    "latitude": 48.833333333,
    "longitude": 15.083333333
   },
   "settlementClass": null
  },
  {
   "externalId": "62001",
   "name": "Amering",
   "aliases": [],
   "stateCode": "6",
   "stateName": "Steiermark",
   "districtCode": "620",
   "districtName": "Bezirk Murtal",
   "population": 1079,
   "areaKm2": 48,
   "centroid": {
    "latitude": 47.05,
    "longitude": 14.733333333
   },
   "settlementClass": null
  },
  {
   "externalId": "70703",
   "name": "Amlach",
   "aliases": [],
   "stateCode": "7",
   "stateName": "Tirol",
   "districtCode": "707",
   "districtName": "Bezirk Lienz",
   "population": 492,
   "areaKm2": 22.49,
   "centroid": {
    "latitude": 46.813333333,
    "longitude": 12.761111111
   },
   "settlementClass": null
  },
  {
   "externalId": "41016",
   "name": "Oftering",
   "aliases": [],
   "stateCode": "4",
   "stateName": "Oberösterreich",
   "districtCode": "410",
   "districtName": "Bezirk Linz-Land",
   "population": 2076,
   "areaKm2": 13.5,
   "centroid": {
    "latitude": 48.233611111,
    "longitude": 14.133333333
   },
   "settlementClass": null
  },
  {
   "externalId": "70603",
   "name": "Fiss",
   "aliases": [],
   "stateCode": "7",
   "stateName": "Tirol",
   "districtCode": "706",
   "districtName": "Bezirk Landeck",
   "population": 995,
   "areaKm2": 37.7,
   "centroid": {
    "latitude": 47.055277777,
    "longitude": 10.619722222
   },
   "settlementClass": null
  },
  {
   "externalId": "70810",
   "name": "Forchach",
   "aliases": [],
   "stateCode": "7",
   "stateName": "Tirol",
   "districtCode": "708",
   "districtName": "Bezirk Reutte",
   "population": 259,
   "areaKm2": 14.26,
   "centroid": {
    "latitude": 47.4225,
    "longitude": 10.592222222
   },
   "settlementClass": null
  },
  {
   "externalId": "41314",
   "name": "Kirchberg ob der Donau",
   "aliases": [],
   "stateCode": "4",
   "stateName": "Oberösterreich",
   "districtCode": "413",
   "districtName": "Bezirk Rohrbach",
   "population": 1055,
   "areaKm2": 21,
   "centroid": {
    "latitude": 48.445,
    "longitude": 13.936111111
   },
   "settlementClass": null
  },
  {
   "externalId": "70303",
   "name": "Ampass",
   "aliases": [],
   "stateCode": "7",
   "stateName": "Tirol",
   "districtCode": "703",
   "districtName": "Bezirk Innsbruck-Land",
   "population": 1836,
   "areaKm2": 7.9,
   "centroid": {
    "latitude": 47.2634,
    "longitude": 11.4647
   },
   "settlementClass": null
  },
  {
   "externalId": "41701",
   "name": "Ampflwang im Hausruckwald",
   "aliases": [],
   "stateCode": "4",
   "stateName": "Oberösterreich",
   "districtCode": "417",
   "districtName": "Bezirk Vöcklabruck",
   "population": 3376,
   "areaKm2": 20.57,
   "centroid": {
    "latitude": 48.092777777,
    "longitude": 13.566666666
   },
   "settlementClass": null
  },
  {
   "externalId": "61708",
   "name": "Fischbach",
   "aliases": [],
   "stateCode": "6",
   "stateName": "Steiermark",
   "districtCode": "617",
   "districtName": "Bezirk Weiz",
   "population": 1528,
   "areaKm2": 61.65,
   "centroid": {
    "latitude": 47.441944444,
    "longitude": 15.650555555
   },
   "settlementClass": null
  },
  {
   "externalId": "10926",
   "name": "Weiden bei Rechnitz",
   "aliases": [],
   "stateCode": "1",
   "stateName": "Burgenland",
   "districtCode": "109",
   "districtName": "Bezirk Oberwart",
   "population": 824,
   "areaKm2": 39.84,
   "centroid": {
    "latitude": 47.3025,
    "longitude": 16.3475
   },
   "settlementClass": null
  },
  {
   "externalId": "31832",
   "name": "Scheiblingkirchen-Thernberg",
   "aliases": [],
   "stateCode": "3",
   "stateName": "Niederösterreich",
   "districtCode": "318",
   "districtName": "Bezirk Neunkirchen",
   "population": 1864,
   "areaKm2": 37.83,
   "centroid": {
    "latitude": 47.660278,
    "longitude": 16.158333
   },
   "settlementClass": null
  },
  {
   "externalId": "80128",
   "name": "Tschagguns",
   "aliases": [],
   "stateCode": "8",
   "stateName": "Vorarlberg",
   "districtCode": "801",
   "districtName": "Bezirk Bludenz",
   "population": 2257,
   "areaKm2": 57.65,
   "centroid": {
    "latitude": 47.076666666,
    "longitude": 9.900833333
   },
   "settlementClass": null
  },
  {
   "externalId": "70901",
   "name": "Achenkirch",
   "aliases": [],
   "stateCode": "7",
   "stateName": "Tirol",
   "districtCode": "709",
   "districtName": "Bezirk Schwaz",
   "population": 2169,
   "areaKm2": 113.95,
   "centroid": {
    "latitude": 47.526944444,
    "longitude": 11.707222222
   },
   "settlementClass": null
  },
  {
   "externalId": "20201",
   "name": "Villach",
   "aliases": [],
   "stateCode": "2",
   "stateName": "Kärnten",
   "districtCode": "202",
   "districtName": "Kärnten",
   "population": 65127,
   "areaKm2": 134.98,
   "centroid": {
    "latitude": 46.616666666,
    "longitude": 13.833333333
   },
   "settlementClass": null
  },
  {
   "externalId": "61108",
   "name": "Leoben",
   "aliases": [],
   "stateCode": "6",
   "stateName": "Steiermark",
   "districtCode": "611",
   "districtName": "Bezirk Leoben",
   "population": 24645,
   "areaKm2": 107.77,
   "centroid": {
    "latitude": 47.381666666,
    "longitude": 15.097222222
   },
   "settlementClass": null
  },
  {
   "externalId": "70513",
   "name": "Kufstein",
   "aliases": [],
   "stateCode": "7",
   "stateName": "Tirol",
   "districtCode": "705",
   "districtName": "Bezirk Kufstein",
   "population": 19126,
   "areaKm2": 39.4,
   "centroid": {
    "latitude": 47.583333333,
    "longitude": 12.166666666
   },
   "settlementClass": null
  },
  {
   "externalId": "30604",
   "name": "Baden bei Wien",
   "aliases": [],
   "stateCode": "3",
   "stateName": "Niederösterreich",
   "districtCode": "306",
   "districtName": "Bezirk Baden",
   "population": 26286,
   "areaKm2": 26.89,
   "centroid": {
    "latitude": 48.0075,
    "longitude": 16.234444444
   },
   "settlementClass": null
  },
  {
   "externalId": "20635",
   "name": "Spittal an der Drau",
   "aliases": [],
   "stateCode": "2",
   "stateName": "Kärnten",
   "districtCode": "206",
   "districtName": "Bezirk Spittal an der Drau",
   "population": 15413,
   "areaKm2": 48.52,
   "centroid": {
    "latitude": 46.791666666,
    "longitude": 13.495833333
   },
   "settlementClass": null
  },
  {
   "externalId": "70828",
   "name": "Reutte",
   "aliases": [],
   "stateCode": "7",
   "stateName": "Tirol",
   "districtCode": "708",
   "districtName": "Bezirk Reutte",
   "population": 6989,
   "areaKm2": 100.9,
   "centroid": {
    "latitude": 47.483333333,
    "longitude": 10.716666666
   },
   "settlementClass": null
  },
  {
   "externalId": "32144",
   "name": "Klosterneuburg",
   "aliases": [],
   "stateCode": "3",
   "stateName": "Niederösterreich",
   "districtCode": "321",
   "districtName": "Bezirk Tulln",
   "population": 27058,
   "areaKm2": 76.2,
   "centroid": {
    "latitude": 48.304166666,
    "longitude": 16.316666666
   },
   "settlementClass": null
  },
  {
   "externalId": "20923",
   "name": "Wolfsberg",
   "aliases": [],
   "stateCode": "2",
   "stateName": "Kärnten",
   "districtCode": "209",
   "districtName": "Bezirk Wolfsberg",
   "population": 25035,
   "areaKm2": 278.31,
   "centroid": {
    "latitude": 46.841944444,
    "longitude": 14.840833333
   },
   "settlementClass": null
  },
  {
   "externalId": "41012",
   "name": "Leonding",
   "aliases": [],
   "stateCode": "4",
   "stateName": "Oberösterreich",
   "districtCode": "410",
   "districtName": "Bezirk Linz-Land",
   "population": 28698,
   "areaKm2": 24.04,
   "centroid": {
    "latitude": 48.279166666,
    "longitude": 14.252777777
   },
   "settlementClass": null
  },
  {
   "externalId": "80303",
   "name": "Lustenau",
   "aliases": [],
   "stateCode": "8",
   "stateName": "Vorarlberg",
   "districtCode": "803",
   "districtName": "Bezirk Dornbirn",
   "population": 24603,
   "areaKm2": 22.26,
   "centroid": {
    "latitude": 47.4271,
    "longitude": 9.67114
   },
   "settlementClass": null
  },
  {
   "externalId": "31524",
   "name": "Melk",
   "aliases": [],
   "stateCode": "3",
   "stateName": "Niederösterreich",
   "districtCode": "315",
   "districtName": "Bezirk Melk",
   "population": 5725,
   "areaKm2": 25.7,
   "centroid": {
    "latitude": 48.22673,
    "longitude": 15.33049
   },
   "settlementClass": null
  },
  {
   "externalId": "32135",
   "name": "Tulln an der Donau",
   "aliases": [],
   "stateCode": "3",
   "stateName": "Niederösterreich",
   "districtCode": "321",
   "districtName": "Bezirk Tulln",
   "population": 16197,
   "areaKm2": 72.22,
   "centroid": {
    "latitude": 48.333333333,
    "longitude": 16.05
   },
   "settlementClass": null
  },
  {
   "externalId": "30740",
   "name": "Schwechat",
   "aliases": [],
   "stateCode": "3",
   "stateName": "Niederösterreich",
   "districtCode": "307",
   "districtName": "Bezirk Bruck an der Leitha",
   "population": 18026,
   "areaKm2": 44.73,
   "centroid": {
    "latitude": 48.141111111,
    "longitude": 16.478611111
   },
   "settlementClass": null
  },
  {
   "externalId": "80202",
   "name": "Andelsbuch",
   "aliases": [],
   "stateCode": "8",
   "stateName": "Vorarlberg",
   "districtCode": "802",
   "districtName": "Bezirk Bregenz",
   "population": 2705,
   "areaKm2": 19.56,
   "centroid": {
    "latitude": 47.413333333,
    "longitude": 9.896111111
   },
   "settlementClass": null
  },
  {
   "externalId": "30802",
   "name": "Andlersdorf",
   "aliases": [],
   "stateCode": "3",
   "stateName": "Niederösterreich",
   "districtCode": "308",
   "districtName": "Bezirk Gänserndorf",
   "population": 137,
   "areaKm2": 5.9,
   "centroid": {
    "latitude": 48.18,
    "longitude": 16.666666666
   },
   "settlementClass": null
  },
  {
   "externalId": "41402",
   "name": "Andorf",
   "aliases": [],
   "stateCode": "4",
   "stateName": "Oberösterreich",
   "districtCode": "414",
   "districtName": "Bezirk Schärding",
   "population": 5174,
   "areaKm2": 37.67,
   "centroid": {
    "latitude": 48.366666666,
    "longitude": 13.566666666
   },
   "settlementClass": null
  },
  {
   "externalId": "62143",
   "name": "Mürzzuschlag",
   "aliases": [],
   "stateCode": "6",
   "stateName": "Steiermark",
   "districtCode": "621",
   "districtName": "Bezirk Bruck-Mürzzuschlag",
   "population": 8156,
   "areaKm2": 12.26,
   "centroid": {
    "latitude": 47.6075,
    "longitude": 15.673055555
   },
   "settlementClass": null
  },
  {
   "externalId": "31230",
   "name": "Stockerau",
   "aliases": [],
   "stateCode": "3",
   "stateName": "Niederösterreich",
   "districtCode": "312",
   "districtName": "Bezirk Korneuburg",
   "population": 17210,
   "areaKm2": 37.41,
   "centroid": {
    "latitude": 48.385833333,
    "longitude": 16.210833333
   },
   "settlementClass": null
  },
  {
   "externalId": "80103",
   "name": "Bludenz",
   "aliases": [],
   "stateCode": "8",
   "stateName": "Vorarlberg",
   "districtCode": "801",
   "districtName": "Bezirk Bludenz",
   "population": 15102,
   "areaKm2": 29.92,
   "centroid": {
    "latitude": 47.153333333,
    "longitude": 9.821944444
   },
   "settlementClass": null
  },
  {
   "externalId": "20527",
   "name": "St. Veit an der Glan",
   "aliases": [],
   "stateCode": "2",
   "stateName": "Kärnten",
   "districtCode": "205",
   "districtName": "Bezirk St. Veit an der Glan",
   "population": 12547,
   "areaKm2": 50.79,
   "centroid": {
    "latitude": 46.766666666,
    "longitude": 14.360277777
   },
   "settlementClass": null
  },
  {
   "externalId": "62041",
   "name": "Knittelfeld",
   "aliases": [],
   "stateCode": "6",
   "stateName": "Steiermark",
   "districtCode": "620",
   "districtName": "Bezirk Murtal",
   "population": 12626,
   "areaKm2": 13.81,
   "centroid": {
    "latitude": 47.215,
    "longitude": 14.829444444
   },
   "settlementClass": null
  },
  {
   "externalId": "61430",
   "name": "Stadl an der Mur",
   "aliases": [],
   "stateCode": "6",
   "stateName": "Steiermark",
   "districtCode": "614",
   "districtName": "Stadl-Predlitz",
   "population": 957,
   "areaKm2": 106.73,
   "centroid": {
    "latitude": 47.085833333,
    "longitude": 13.979166666
   },
   "settlementClass": null
  },
  {
   "externalId": "41805",
   "name": "Eberstalzell",
   "aliases": [],
   "stateCode": "4",
   "stateName": "Oberösterreich",
   "districtCode": "418",
   "districtName": "Bezirk Wels-Land",
   "population": 2627,
   "areaKm2": 27.57,
   "centroid": {
    "latitude": 48.044722222,
    "longitude": 13.981944444
   },
   "settlementClass": null
  },
  {
   "externalId": "21002",
   "name": "Feldkirchen in Kärnten",
   "aliases": [],
   "stateCode": "2",
   "stateName": "Kärnten",
   "districtCode": "210",
   "districtName": "Bezirk Feldkirchen",
   "population": 14198,
   "areaKm2": 77.5,
   "centroid": {
    "latitude": 46.723611111,
    "longitude": 14.091944444
   },
   "settlementClass": null
  },
  {
   "externalId": "41333",
   "name": "St. Oswald bei Haslach",
   "aliases": [],
   "stateCode": "4",
   "stateName": "Oberösterreich",
   "districtCode": "413",
   "districtName": "Bezirk Rohrbach",
   "population": 501,
   "areaKm2": 8,
   "centroid": {
    "latitude": 48.619722222,
    "longitude": 14.031666666
   },
   "settlementClass": null
  },
  {
   "externalId": "60629",
   "name": "Lieboch",
   "aliases": [],
   "stateCode": "6",
   "stateName": "Steiermark",
   "districtCode": "606",
   "districtName": "Bezirk Graz-Umgebung",
   "population": 5096,
   "areaKm2": 11.76,
   "centroid": {
    "latitude": 46.974166666,
    "longitude": 15.3375
   },
   "settlementClass": null
  },
  {
   "externalId": "32134",
   "name": "Tulbing",
   "aliases": [],
   "stateCode": "3",
   "stateName": "Niederösterreich",
   "districtCode": "321",
   "districtName": "Bezirk Tulln",
   "population": 2971,
   "areaKm2": 18.36,
   "centroid": {
    "latitude": 48.2875,
    "longitude": 16.116666666
   },
   "settlementClass": null
  },
  {
   "externalId": "41338",
   "name": "Sarleinsbach",
   "aliases": [],
   "stateCode": "4",
   "stateName": "Oberösterreich",
   "districtCode": "413",
   "districtName": "Bezirk Rohrbach",
   "population": 2284,
   "areaKm2": 36.84,
   "centroid": {
    "latitude": 48.547222222,
    "longitude": 13.905277777
   },
   "settlementClass": null
  },
  {
   "externalId": "50425",
   "name": "Werfenweng",
   "aliases": [],
   "stateCode": "5",
   "stateName": "Salzburg",
   "districtCode": "504",
   "districtName": "Bezirk St. Johann im Pongau",
   "population": 1012,
   "areaKm2": 45,
   "centroid": {
    "latitude": 47.461111111,
    "longitude": 13.258333333
   },
   "settlementClass": null
  },
  {
   "externalId": "41201",
   "name": "Andrichsfurt",
   "aliases": [],
   "stateCode": "4",
   "stateName": "Oberösterreich",
   "districtCode": "412",
   "districtName": "Bezirk Ried",
   "population": 770,
   "areaKm2": 12.3,
   "centroid": {
    "latitude": 48.265,
    "longitude": 13.523888888
   },
   "settlementClass": null
  },
  {
   "externalId": "32216",
   "name": "Raabs an der Thaya",
   "aliases": [],
   "stateCode": "3",
   "stateName": "Niederösterreich",
   "districtCode": "322",
   "districtName": "Bezirk Waidhofen an der Thaya",
   "population": 2651,
   "areaKm2": 134.65,
   "centroid": {
    "latitude": 48.848055555,
    "longitude": 15.493055555
   },
   "settlementClass": null
  },
  {
   "externalId": "80212",
   "name": "Eichenberg",
   "aliases": [],
   "stateCode": "8",
   "stateName": "Vorarlberg",
   "districtCode": "802",
   "districtName": "Bezirk Bregenz",
   "population": 419,
   "areaKm2": 11.59,
   "centroid": {
    "latitude": 47.536111111,
    "longitude": 9.779722222
   },
   "settlementClass": null
  },
  {
   "externalId": "70204",
   "name": "Imsterberg",
   "aliases": [],
   "stateCode": "7",
   "stateName": "Tirol",
   "districtCode": "702",
   "districtName": "Bezirk Imst",
   "population": 801,
   "areaKm2": 10.84,
   "centroid": {
    "latitude": 47.205555555,
    "longitude": 10.697222222
   },
   "settlementClass": null
  },
  {
   "externalId": "70405",
   "name": "Hochfilzen",
   "aliases": [],
   "stateCode": "7",
   "stateName": "Tirol",
   "districtCode": "704",
   "districtName": "Bezirk Kitzbühel",
   "population": 1196,
   "areaKm2": 32.68,
   "centroid": {
    "latitude": 47.469444444,
    "longitude": 12.6225
   },
   "settlementClass": null
  },
  {
   "externalId": "31928",
   "name": "Nußdorf ob der Traisen",
   "aliases": [],
   "stateCode": "3",
   "stateName": "Niederösterreich",
   "districtCode": "319",
   "districtName": "Bezirk St. Pölten",
   "population": 1758,
   "areaKm2": 15.43,
   "centroid": {
    "latitude": 48.353333333,
    "longitude": 15.695
   },
   "settlementClass": null
  },
  {
   "externalId": "31946",
   "name": "Perschling",
   "aliases": [],
   "stateCode": "3",
   "stateName": "Niederösterreich",
   "districtCode": "319",
   "districtName": "Bezirk St. Pölten",
   "population": 1395,
   "areaKm2": 23.8,
   "centroid": {
    "latitude": 48.26171,
    "longitude": 15.79568
   },
   "settlementClass": null
  },
  {
   "externalId": "60659",
   "name": "Deutschfeistritz",
   "aliases": [],
   "stateCode": "6",
   "stateName": "Steiermark",
   "districtCode": "606",
   "districtName": "Bezirk Graz-Umgebung",
   "population": 4311,
   "areaKm2": 39.19,
   "centroid": {
    "latitude": 47.198611111,
    "longitude": 15.336111111
   },
   "settlementClass": null
  },
  {
   "externalId": "80112",
   "name": "Klösterle",
   "aliases": [],
   "stateCode": "8",
   "stateName": "Vorarlberg",
   "districtCode": "801",
   "districtName": "Bezirk Bludenz",
   "population": 667,
   "areaKm2": 62.31,
   "centroid": {
    "latitude": 47.131111111,
    "longitude": 10.091944444
   },
   "settlementClass": null
  },
  {
   "externalId": "62028",
   "name": "Sankt Lorenzen bei Knittelfeld",
   "aliases": [],
   "stateCode": "6",
   "stateName": "Steiermark",
   "districtCode": "620",
   "districtName": "Bezirk Murtal",
   "population": 803,
   "areaKm2": 35.88,
   "centroid": {
    "latitude": 47.25,
    "longitude": 14.883333333
   },
   "settlementClass": null
  },
  {
   "externalId": "20913",
   "name": "Sankt Andrä",
   "aliases": [],
   "stateCode": "2",
   "stateName": "Kärnten",
   "districtCode": "209",
   "districtName": "Bezirk Wolfsberg",
   "population": 9957,
   "areaKm2": 113.47,
   "centroid": {
    "latitude": 46.766666666,
    "longitude": 14.816666666
   },
   "settlementClass": null
  },
  {
   "externalId": "41605",
   "name": "Engerwitzdorf",
   "aliases": [],
   "stateCode": "4",
   "stateName": "Oberösterreich",
   "districtCode": "416",
   "districtName": "Bezirk Urfahr-Umgebung",
   "population": 8790,
   "areaKm2": 41.09,
   "centroid": {
    "latitude": 48.339722222,
    "longitude": 14.425555555
   },
   "settlementClass": null
  },
  {
   "externalId": "62038",
   "name": "Zeltweg",
   "aliases": [],
   "stateCode": "6",
   "stateName": "Steiermark",
   "districtCode": "620",
   "districtName": "Bezirk Murtal",
   "population": 7212,
   "areaKm2": 8.67,
   "centroid": {
    "latitude": 47.190555555,
    "longitude": 14.751111111
   },
   "settlementClass": null
  },
  {
   "externalId": "10618",
   "name": "Zemendorf-Stöttera",
   "aliases": [],
   "stateCode": "1",
   "stateName": "Burgenland",
   "districtCode": "106",
   "districtName": "Bezirk Mattersburg",
   "population": 1268,
   "areaKm2": 12.83,
   "centroid": {
    "latitude": 47.765555555,
    "longitude": 16.454722222
   },
   "settlementClass": null
  },
  {
   "externalId": "62374",
   "name": "Zerlach",
   "aliases": [],
   "stateCode": "6",
   "stateName": "Steiermark",
   "districtCode": "623",
   "districtName": "Bezirk Südoststeiermark",
   "population": 1690,
   "areaKm2": 23.78,
   "centroid": {
    "latitude": 46.957011111,
    "longitude": 15.663788888
   },
   "settlementClass": null
  },
  {
   "externalId": "60657",
   "name": "Zettling",
   "aliases": [],
   "stateCode": "6",
   "stateName": "Steiermark",
   "districtCode": "606",
   "districtName": "Premstätten",
   "population": 1570,
   "areaKm2": 11.29,
   "centroid": {
    "latitude": 46.951944444,
    "longitude": 15.434444444
   },
   "settlementClass": null
  },
  {
   "externalId": "61435",
   "name": "Zeutschach",
   "aliases": [],
   "stateCode": "6",
   "stateName": "Steiermark",
   "districtCode": "614",
   "districtName": "Bezirk Murau",
   "population": 210,
   "areaKm2": 18.34,
   "centroid": {
    "latitude": 47.070833333,
    "longitude": 14.366666666
   },
   "settlementClass": null
  },
  {
   "externalId": "31053",
   "name": "Ziersdorf",
   "aliases": [],
   "stateCode": "3",
   "stateName": "Niederösterreich",
   "districtCode": "310",
   "districtName": "Bezirk Hollabrunn",
   "population": 3446,
   "areaKm2": 48.71,
   "centroid": {
    "latitude": 48.533333333,
    "longitude": 15.933333333
   },
   "settlementClass": null
  },
  {
   "externalId": "60642",
   "name": "Sankt Radegund bei Graz",
   "aliases": [],
   "stateCode": "6",
   "stateName": "Steiermark",
   "districtCode": "606",
   "districtName": "Bezirk Graz-Umgebung",
   "population": 2165,
   "areaKm2": 21.6,
   "centroid": {
    "latitude": 47.181111111,
    "longitude": 15.489444444
   },
   "settlementClass": null
  },
  {
   "externalId": "10320",
   "name": "Loretto",
   "aliases": [],
   "stateCode": "1",
   "stateName": "Burgenland",
   "districtCode": "103",
   "districtName": "Bezirk Eisenstadt-Umgebung",
   "population": 475,
   "areaKm2": 2.38,
   "centroid": {
    "latitude": 47.915277777,
    "longitude": 16.516944444
   },
   "settlementClass": null
  },
  {
   "externalId": "70936",
   "name": "Vomp",
   "aliases": [],
   "stateCode": "7",
   "stateName": "Tirol",
   "districtCode": "709",
   "districtName": "Bezirk Schwaz",
   "population": 5283,
   "areaKm2": 182.61,
   "centroid": {
    "latitude": 47.342222222,
    "longitude": 11.683333333
   },
   "settlementClass": null
  },
  {
   "externalId": "32338",
   "name": "Zillingdorf",
   "aliases": [],
   "stateCode": "3",
   "stateName": "Niederösterreich",
   "districtCode": "323",
   "districtName": "Bezirk Wiener Neustadt",
   "population": 2030,
   "areaKm2": 15.34,
   "centroid": {
    "latitude": 47.85,
    "longitude": 16.333333333
   },
   "settlementClass": null
  },
  {
   "externalId": "10322",
   "name": "Zillingtal",
   "aliases": [],
   "stateCode": "1",
   "stateName": "Burgenland",
   "districtCode": "103",
   "districtName": "Bezirk Eisenstadt-Umgebung",
   "population": 990,
   "areaKm2": 13.1,
   "centroid": {
    "latitude": 47.814722222,
    "longitude": 16.408888888
   },
   "settlementClass": null
  },
  {
   "externalId": "50609",
   "name": "Leogang",
   "aliases": [],
   "stateCode": "5",
   "stateName": "Salzburg",
   "districtCode": "506",
   "districtName": "Bezirk Zell am See",
   "population": 3263,
   "areaKm2": 90.27,
   "centroid": {
    "latitude": 47.416666666,
    "longitude": 12.75
   },
   "settlementClass": null
  },
  {
   "externalId": "10427",
   "name": "Rauchwart",
   "aliases": [],
   "stateCode": "1",
   "stateName": "Burgenland",
   "districtCode": "104",
   "districtName": "Bezirk Güssing",
   "population": 446,
   "areaKm2": 17.51,
   "centroid": {
    "latitude": 47.133611111,
    "longitude": 16.230833333
   },
   "settlementClass": null
  },
  {
   "externalId": "40409",
   "name": "Geretsberg",
   "aliases": [],
   "stateCode": "4",
   "stateName": "Oberösterreich",
   "districtCode": "404",
   "districtName": "Bezirk Braunau",
   "population": 1187,
   "areaKm2": 37.54,
   "centroid": {
    "latitude": 48.088888888,
    "longitude": 12.934722222
   },
   "settlementClass": null
  },
  {
   "externalId": "41426",
   "name": "Taufkirchen an der Pram",
   "aliases": [],
   "stateCode": "4",
   "stateName": "Oberösterreich",
   "districtCode": "414",
   "districtName": "Bezirk Schärding",
   "population": 2925,
   "areaKm2": 29.15,
   "centroid": {
    "latitude": 48.41043,
    "longitude": 13.53807
   },
   "settlementClass": null
  },
  {
   "externalId": "32525",
   "name": "Schweiggers",
   "aliases": [],
   "stateCode": "3",
   "stateName": "Niederösterreich",
   "districtCode": "325",
   "districtName": "Bezirk Zwettl",
   "population": 2004,
   "areaKm2": 58.65,
   "centroid": {
    "latitude": 48.666666666,
    "longitude": 15.05
   },
   "settlementClass": null
  },
  {
   "externalId": "70369",
   "name": "Zirl",
   "aliases": [],
   "stateCode": "7",
   "stateName": "Tirol",
   "districtCode": "703",
   "districtName": "Bezirk Innsbruck-Land",
   "population": 8110,
   "areaKm2": 57.24,
   "centroid": {
    "latitude": 47.273333333,
    "longitude": 11.241388888
   },
   "settlementClass": null
  },
  {
   "externalId": "30863",
   "name": "Zistersdorf",
   "aliases": [],
   "stateCode": "3",
   "stateName": "Niederösterreich",
   "districtCode": "308",
   "districtName": "Bezirk Gänserndorf",
   "population": 5391,
   "areaKm2": 88.69,
   "centroid": {
    "latitude": 48.516666666,
    "longitude": 16.75
   },
   "settlementClass": null
  },
  {
   "externalId": "62322",
   "name": "Gniebing-Weißenbach",
   "aliases": [],
   "stateCode": "6",
   "stateName": "Steiermark",
   "districtCode": "623",
   "districtName": "Feldbach",
   "population": 2190,
   "areaKm2": 15.36,
   "centroid": {
    "latitude": 46.966666666,
    "longitude": 15.85
   },
   "settlementClass": null
  },
  {
   "externalId": "20701",
   "name": "Afritz am See",
   "aliases": [],
   "stateCode": "2",
   "stateName": "Kärnten",
   "districtCode": "207",
   "districtName": "Bezirk Villach-Land",
   "population": 1429,
   "areaKm2": 28.02,
   "centroid": {
    "latitude": 46.7275,
    "longitude": 13.8
   },
   "settlementClass": null
  },
  {
   "externalId": "31911",
   "name": "Haunoldstein",
   "aliases": [],
   "stateCode": "3",
   "stateName": "Niederösterreich",
   "districtCode": "319",
   "districtName": "Bezirk St. Pölten",
   "population": 1160,
   "areaKm2": 9.89,
   "centroid": {
    "latitude": 48.195,
    "longitude": 15.456666666
   },
   "settlementClass": null
  },
  {
   "externalId": "10704",
   "name": "Deutsch Jahrndorf",
   "aliases": [],
   "stateCode": "1",
   "stateName": "Burgenland",
   "districtCode": "107",
   "districtName": "Bezirk Neusiedl am See",
   "population": 611,
   "areaKm2": 27.43,
   "centroid": {
    "latitude": 48.011666666,
    "longitude": 17.105555555
   },
   "settlementClass": null
  },
  {
   "externalId": "40610",
   "name": "Leopoldschlag",
   "aliases": [],
   "stateCode": "4",
   "stateName": "Oberösterreich",
   "districtCode": "406",
   "districtName": "Bezirk Freistadt",
   "population": 1023,
   "areaKm2": 25.67,
   "centroid": {
    "latitude": 48.616666666,
    "longitude": 14.5
   },
   "settlementClass": null
  },
  {
   "externalId": "10724",
   "name": "Zurndorf",
   "aliases": [],
   "stateCode": "1",
   "stateName": "Burgenland",
   "districtCode": "107",
   "districtName": "Bezirk Neusiedl am See",
   "population": 2247,
   "areaKm2": 54.29,
   "centroid": {
    "latitude": 47.983055555,
    "longitude": 17.003055555
   },
   "settlementClass": null
  },
  {
   "externalId": "60658",
   "name": "Zwaring-Pöls",
   "aliases": [],
   "stateCode": "6",
   "stateName": "Steiermark",
   "districtCode": "606",
   "districtName": "Bezirk Graz-Umgebung",
   "population": 1587,
   "areaKm2": 23.98,
   "centroid": {
    "latitude": 46.910277777,
    "longitude": 15.412777777
   },
   "settlementClass": null
  },
  {
   "externalId": "50505",
   "name": "Muhr",
   "aliases": [],
   "stateCode": "5",
   "stateName": "Salzburg",
   "districtCode": "505",
   "districtName": "Bezirk Tamsweg",
   "population": 510,
   "areaKm2": 115.96,
   "centroid": {
    "latitude": 47.083333333,
    "longitude": 13.483333333
   },
   "settlementClass": null
  },
  {
   "externalId": "31356",
   "name": "Droß",
   "aliases": [],
   "stateCode": "3",
   "stateName": "Niederösterreich",
   "districtCode": "313",
   "districtName": "Bezirk Krems",
   "population": 983,
   "areaKm2": 10.3,
   "centroid": {
    "latitude": 48.46444,
    "longitude": 15.57364
   },
   "settlementClass": null
  },
  {
   "externalId": "41423",
   "name": "Schardenberg",
   "aliases": [],
   "stateCode": "4",
   "stateName": "Oberösterreich",
   "districtCode": "414",
   "districtName": "Bezirk Schärding",
   "population": 2407,
   "areaKm2": 31.63,
   "centroid": {
    "latitude": 48.520277777,
    "longitude": 13.4975
   },
   "settlementClass": null
  },
  {
   "externalId": "10903",
   "name": "Deutsch Schützen-Eisenberg",
   "aliases": [],
   "stateCode": "1",
   "stateName": "Burgenland",
   "districtCode": "109",
   "districtName": "Bezirk Oberwart",
   "population": 1126,
   "areaKm2": 28.43,
   "centroid": {
    "latitude": 47.166666666,
    "longitude": 16.433333333
   },
   "settlementClass": null
  },
  {
   "externalId": "40604",
   "name": "Hagenberg im Mühlkreis",
   "aliases": [],
   "stateCode": "4",
   "stateName": "Oberösterreich",
   "districtCode": "406",
   "districtName": "Bezirk Freistadt",
   "population": 2737,
   "areaKm2": 15.06,
   "centroid": {
    "latitude": 48.363888888,
    "longitude": 14.519444444
   },
   "settlementClass": null
  },
  {
   "externalId": "32141",
   "name": "Zwentendorf an der Donau",
   "aliases": [],
   "stateCode": "3",
   "stateName": "Niederösterreich",
   "districtCode": "321",
   "districtName": "Bezirk Tulln",
   "population": 3982,
   "areaKm2": 53.9,
   "centroid": {
    "latitude": 48.3425,
    "longitude": 15.913888888
   },
   "settlementClass": null
  },
  {
   "externalId": "41627",
   "name": "Zwettl an der Rodl",
   "aliases": [],
   "stateCode": "4",
   "stateName": "Oberösterreich",
   "districtCode": "416",
   "districtName": "Bezirk Urfahr-Umgebung",
   "population": 1752,
   "areaKm2": 15.36,
   "centroid": {
    "latitude": 48.466666666,
    "longitude": 14.267222222
   },
   "settlementClass": null
  },
  {
   "externalId": "32530",
   "name": "Zwettl-Niederösterreich",
   "aliases": [],
   "stateCode": "3",
   "stateName": "Niederösterreich",
   "districtCode": "325",
   "districtName": "Bezirk Zwettl",
   "population": 10722,
   "areaKm2": 256.31,
   "centroid": {
    "latitude": 48.603333333,
    "longitude": 15.168888888
   },
   "settlementClass": null
  },
  {
   "externalId": "80424",
   "name": "Zwischenwasser",
   "aliases": [],
   "stateCode": "8",
   "stateName": "Vorarlberg",
   "districtCode": "804",
   "districtName": "Bezirk Feldkirch",
   "population": 3419,
   "areaKm2": 22.63,
   "centroid": {
    "latitude": 47.279166666,
    "longitude": 9.665555555
   },
   "settlementClass": null
  },
  {
   "externalId": "30741",
   "name": "Zwölfaxing",
   "aliases": [],
   "stateCode": "3",
   "stateName": "Niederösterreich",
   "districtCode": "307",
   "districtName": "Bezirk Bruck an der Leitha",
   "population": 1744,
   "areaKm2": 6.75,
   "centroid": {
    "latitude": 48.1093,
    "longitude": 16.463
   },
   "settlementClass": null
  },
  {
   "externalId": "10723",
   "name": "Winden am See",
   "aliases": [],
   "stateCode": "1",
   "stateName": "Burgenland",
   "districtCode": "107",
   "districtName": "Bezirk Neusiedl am See",
   "population": 1315,
   "areaKm2": 13.5,
   "centroid": {
    "latitude": 47.95,
    "longitude": 16.75
   },
   "settlementClass": null
  },
  {
   "externalId": "31848",
   "name": "Zöbern",
   "aliases": [],
   "stateCode": "3",
   "stateName": "Niederösterreich",
   "districtCode": "318",
   "districtName": "Bezirk Neunkirchen",
   "population": 1423,
   "areaKm2": 31.56,
   "centroid": {
    "latitude": 47.5,
    "longitude": 16.116666666
   },
   "settlementClass": null
  },
  {
   "externalId": "70837",
   "name": "Zöblen",
   "aliases": [],
   "stateCode": "7",
   "stateName": "Tirol",
   "districtCode": "708",
   "districtName": "Bezirk Reutte",
   "population": 240,
   "areaKm2": 8.77,
   "centroid": {
    "latitude": 47.5075,
    "longitude": 10.478333333
   },
   "settlementClass": null
  },
  {
   "externalId": "80123",
   "name": "Silbertal",
   "aliases": [],
   "stateCode": "8",
   "stateName": "Vorarlberg",
   "districtCode": "801",
   "districtName": "Bezirk Bludenz",
   "population": 849,
   "areaKm2": 88.6,
   "centroid": {
    "latitude": 47.094722222,
    "longitude": 9.978333333
   },
   "settlementClass": null
  },
  {
   "externalId": "41606",
   "name": "Feldkirchen an der Donau",
   "aliases": [],
   "stateCode": "4",
   "stateName": "Oberösterreich",
   "districtCode": "416",
   "districtName": "Bezirk Urfahr-Umgebung",
   "population": 5361,
   "areaKm2": 39.35,
   "centroid": {
    "latitude": 48.345555555,
    "longitude": 14.050277777
   },
   "settlementClass": null
  },
  {
   "externalId": "10606",
   "name": "Mattersburg",
   "aliases": [],
   "stateCode": "1",
   "stateName": "Burgenland",
   "districtCode": "106",
   "districtName": "Bezirk Mattersburg",
   "population": 7514,
   "areaKm2": 28.2,
   "centroid": {
    "latitude": 47.738055555,
    "longitude": 16.396944444
   },
   "settlementClass": null
  },
  {
   "externalId": "40703",
   "name": "Q250984",
   "aliases": [],
   "stateCode": "4",
   "stateName": "Oberösterreich",
   "districtCode": "407",
   "districtName": "Bezirk Gmunden",
   "population": 14133,
   "areaKm2": 162.8,
   "centroid": {
    "latitude": 47.71153,
    "longitude": 13.62393
   },
   "settlementClass": null
  },
  {
   "externalId": "50418",
   "name": "St. Johann im Pongau",
   "aliases": [],
   "stateCode": "5",
   "stateName": "Salzburg",
   "districtCode": "504",
   "districtName": "Bezirk St. Johann im Pongau",
   "population": 11235,
   "areaKm2": 78.14,
   "centroid": {
    "latitude": 47.35,
    "longitude": 13.2
   },
   "settlementClass": null
  },
  {
   "externalId": "61207",
   "name": "Bad Aussee",
   "aliases": [],
   "stateCode": "6",
   "stateName": "Steiermark",
   "districtCode": "612",
   "districtName": "Bezirk Liezen",
   "population": 4833,
   "areaKm2": 82.03,
   "centroid": {
    "latitude": 47.61,
    "longitude": 13.782777777
   },
   "settlementClass": null
  },
  {
   "externalId": "30502",
   "name": "Amstetten",
   "aliases": [],
   "stateCode": "3",
   "stateName": "Niederösterreich",
   "districtCode": "305",
   "districtName": "Bezirk Amstetten",
   "population": 24008,
   "areaKm2": 51.92,
   "centroid": {
    "latitude": 48.116666666,
    "longitude": 14.866666666
   },
   "settlementClass": null
  },
  {
   "externalId": "50315",
   "name": "Großgmain",
   "aliases": [],
   "stateCode": "5",
   "stateName": "Salzburg",
   "districtCode": "503",
   "districtName": "Bezirk Salzburg-Umgebung",
   "population": 2615,
   "areaKm2": 22.82,
   "centroid": {
    "latitude": 47.725,
    "longitude": 12.908611111
   },
   "settlementClass": null
  },
  {
   "externalId": "41746",
   "name": "Vöcklabruck",
   "aliases": [],
   "stateCode": "4",
   "stateName": "Oberösterreich",
   "districtCode": "417",
   "districtName": "Bezirk Vöcklabruck",
   "population": 12299,
   "areaKm2": 15.59,
   "centroid": {
    "latitude": 48.008611111,
    "longitude": 13.655833333
   },
   "settlementClass": null
  },
  {
   "externalId": "31523",
   "name": "Maria Taferl",
   "aliases": [],
   "stateCode": "3",
   "stateName": "Niederösterreich",
   "districtCode": "315",
   "districtName": "Bezirk Melk",
   "population": 953,
   "areaKm2": 12.17,
   "centroid": {
    "latitude": 48.225300956,
    "longitude": 15.156352106
   },
   "settlementClass": null
  },
  {
   "externalId": "80233",
   "name": "Schoppernau",
   "aliases": [],
   "stateCode": "8",
   "stateName": "Vorarlberg",
   "districtCode": "802",
   "districtName": "Bezirk Bregenz",
   "population": 941,
   "areaKm2": 47.64,
   "centroid": {
    "latitude": 47.313333333,
    "longitude": 10.0175
   },
   "settlementClass": null
  },
  {
   "externalId": "10814",
   "name": "Neutal",
   "aliases": [],
   "stateCode": "1",
   "stateName": "Burgenland",
   "districtCode": "108",
   "districtName": "Bezirk Oberpullendorf",
   "population": 1094,
   "areaKm2": 11.57,
   "centroid": {
    "latitude": 47.545833333,
    "longitude": 16.445833333
   },
   "settlementClass": null
  },
  {
   "externalId": "50610",
   "name": "Lofer",
   "aliases": [],
   "stateCode": "5",
   "stateName": "Salzburg",
   "districtCode": "506",
   "districtName": "Bezirk Zell am See",
   "population": 2037,
   "areaKm2": 55.63,
   "centroid": {
    "latitude": 47.585833333,
    "longitude": 12.693611111
   },
   "settlementClass": null
  },
  {
   "externalId": "50504",
   "name": "Mauterndorf",
   "aliases": [],
   "stateCode": "5",
   "stateName": "Salzburg",
   "districtCode": "505",
   "districtName": "Bezirk Tamsweg",
   "population": 1639,
   "areaKm2": 32.71,
   "centroid": {
    "latitude": 47.1325,
    "longitude": 13.696944444
   },
   "settlementClass": null
  },
  {
   "externalId": "50309",
   "name": "Elsbethen",
   "aliases": [],
   "stateCode": "5",
   "stateName": "Salzburg",
   "districtCode": "503",
   "districtName": "Bezirk Salzburg-Umgebung",
   "population": 5424,
   "areaKm2": 23.94,
   "centroid": {
    "latitude": 47.763611111,
    "longitude": 13.081666666
   },
   "settlementClass": null
  },
  {
   "externalId": "70506",
   "name": "Brixlegg",
   "aliases": [],
   "stateCode": "7",
   "stateName": "Tirol",
   "districtCode": "705",
   "districtName": "Bezirk Kufstein",
   "population": 3044,
   "areaKm2": 9.1,
   "centroid": {
    "latitude": 47.429166666,
    "longitude": 11.8775
   },
   "settlementClass": null
  },
  {
   "externalId": "50624",
   "name": "Uttendorf",
   "aliases": [],
   "stateCode": "5",
   "stateName": "Salzburg",
   "districtCode": "506",
   "districtName": "Bezirk Zell am See",
   "population": 2913,
   "areaKm2": 167.75,
   "centroid": {
    "latitude": 47.266666666,
    "longitude": 12.566666666
   },
   "settlementClass": null
  },
  {
   "externalId": "50211",
   "name": "St. Koloman",
   "aliases": [],
   "stateCode": "5",
   "stateName": "Salzburg",
   "districtCode": "502",
   "districtName": "Bezirk Hallein",
   "population": 1725,
   "areaKm2": 55.97,
   "centroid": {
    "latitude": 47.65,
    "longitude": 13.183333333
   },
   "settlementClass": null
  },
  {
   "externalId": "50301",
   "name": "Anif",
   "aliases": [],
   "stateCode": "5",
   "stateName": "Salzburg",
   "districtCode": "503",
   "districtName": "Bezirk Salzburg-Umgebung",
   "population": 4195,
   "areaKm2": 7.61,
   "centroid": {
    "latitude": 47.75,
    "longitude": 13.066666666
   },
   "settlementClass": null
  },
  {
   "externalId": "40702",
   "name": "Bad Goisern am Hallstättersee",
   "aliases": [],
   "stateCode": "4",
   "stateName": "Oberösterreich",
   "districtCode": "407",
   "districtName": "Bezirk Gmunden",
   "population": 7450,
   "areaKm2": 112.5,
   "centroid": {
    "latitude": 47.641666666,
    "longitude": 13.616666666
   },
   "settlementClass": null
  },
  {
   "externalId": "90501",
   "name": "Margareten",
   "aliases": [],
   "stateCode": "9",
   "stateName": "Wien",
   "districtCode": "905",
   "districtName": "Wien",
   "population": 54400,
   "areaKm2": 2.03,
   "centroid": {
    "latitude": 48.1872,
    "longitude": 16.3531
   },
   "settlementClass": null
  },
  {
   "externalId": "10816",
   "name": "Oberpullendorf",
   "aliases": [],
   "stateCode": "1",
   "stateName": "Burgenland",
   "districtCode": "108",
   "districtName": "Bezirk Oberpullendorf",
   "population": 3188,
   "areaKm2": 12.65,
   "centroid": {
    "latitude": 47.5,
    "longitude": 16.516666666
   },
   "settlementClass": null
  },
  {
   "externalId": "50618",
   "name": "Saalbach-Hinterglemm",
   "aliases": [],
   "stateCode": "5",
   "stateName": "Salzburg",
   "districtCode": "506",
   "districtName": "Bezirk Zell am See",
   "population": 2859,
   "areaKm2": 125.46,
   "centroid": {
    "latitude": 47.383333333,
    "longitude": 12.633333333
   },
   "settlementClass": null
  },
  {
   "externalId": "50409",
   "name": "Forstau",
   "aliases": [],
   "stateCode": "5",
   "stateName": "Salzburg",
   "districtCode": "504",
   "districtName": "Bezirk St. Johann im Pongau",
   "population": 540,
   "areaKm2": 59.4,
   "centroid": {
    "latitude": 47.37784,
    "longitude": 13.55061
   },
   "settlementClass": null
  },
  {
   "externalId": "50421",
   "name": "Schwarzach im Pongau",
   "aliases": [],
   "stateCode": "5",
   "stateName": "Salzburg",
   "districtCode": "504",
   "districtName": "Bezirk St. Johann im Pongau",
   "population": 3515,
   "areaKm2": 3.2,
   "centroid": {
    "latitude": 47.322222222,
    "longitude": 13.15
   },
   "settlementClass": null
  },
  {
   "externalId": "70531",
   "name": "Wörgl",
   "aliases": [],
   "stateCode": "7",
   "stateName": "Tirol",
   "districtCode": "705",
   "districtName": "Bezirk Kufstein",
   "population": 13811,
   "areaKm2": 19.74,
   "centroid": {
    "latitude": 47.483055555,
    "longitude": 12.066388888
   },
   "settlementClass": null
  },
  {
   "externalId": "32314",
   "name": "Kirchschlag in der Buckligen Welt",
   "aliases": [],
   "stateCode": "3",
   "stateName": "Niederösterreich",
   "districtCode": "323",
   "districtName": "Bezirk Wiener Neustadt",
   "population": 2889,
   "areaKm2": 57.97,
   "centroid": {
    "latitude": 47.50335,
    "longitude": 16.29626
   },
   "settlementClass": null
  },
  {
   "externalId": "50412",
   "name": "Hüttau",
   "aliases": [],
   "stateCode": "5",
   "stateName": "Salzburg",
   "districtCode": "504",
   "districtName": "Bezirk St. Johann im Pongau",
   "population": 1492,
   "areaKm2": 53.58,
   "centroid": {
    "latitude": 47.416666666,
    "longitude": 13.308333333
   },
   "settlementClass": null
  },
  {
   "externalId": "10713",
   "name": "Neusiedl am See",
   "aliases": [],
   "stateCode": "1",
   "stateName": "Burgenland",
   "districtCode": "107",
   "districtName": "Bezirk Neusiedl am See",
   "population": 8945,
   "areaKm2": 57.03,
   "centroid": {
    "latitude": 47.948611111,
    "longitude": 16.843055555
   },
   "settlementClass": null
  },
  {
   "externalId": "50607",
   "name": "Krimml",
   "aliases": [],
   "stateCode": "5",
   "stateName": "Salzburg",
   "districtCode": "506",
   "districtName": "Bezirk Zell am See",
   "population": 847,
   "areaKm2": 169.21,
   "centroid": {
    "latitude": 47.218333333,
    "longitude": 12.173333333
   },
   "settlementClass": null
  },
  {
   "externalId": "50407",
   "name": "Filzmoos",
   "aliases": [],
   "stateCode": "5",
   "stateName": "Salzburg",
   "districtCode": "504",
   "districtName": "Bezirk St. Johann im Pongau",
   "population": 1484,
   "areaKm2": 75.71,
   "centroid": {
    "latitude": 47.433333333,
    "longitude": 13.520277777
   },
   "settlementClass": null
  },
  {
   "externalId": "20402",
   "name": "Ebenthal in Kärnten",
   "aliases": [],
   "stateCode": "2",
   "stateName": "Kärnten",
   "districtCode": "204",
   "districtName": "Bezirk Klagenfurt-Land",
   "population": 7851,
   "areaKm2": 54.98,
   "centroid": {
    "latitude": 46.609444444,
    "longitude": 14.355555555
   },
   "settlementClass": null
  },
  {
   "externalId": "61101",
   "name": "Eisenerz",
   "aliases": [],
   "stateCode": "6",
   "stateName": "Steiermark",
   "districtCode": "611",
   "districtName": "Bezirk Leoben",
   "population": 4048,
   "areaKm2": 124,
   "centroid": {
    "latitude": 47.55,
    "longitude": 14.883333333
   },
   "settlementClass": null
  },
  {
   "externalId": "10501",
   "name": "Deutsch Kaltenbrunn",
   "aliases": [],
   "stateCode": "1",
   "stateName": "Burgenland",
   "districtCode": "105",
   "districtName": "Bezirk Jennersdorf",
   "population": 1721,
   "areaKm2": 24.19,
   "centroid": {
    "latitude": 47.09,
    "longitude": 16.106666666
   },
   "settlementClass": null
  },
  {
   "externalId": "41511",
   "name": "Pfarrkirchen bei Bad Hall",
   "aliases": [],
   "stateCode": "4",
   "stateName": "Oberösterreich",
   "districtCode": "415",
   "districtName": "Bezirk Steyr-Land",
   "population": 2244,
   "areaKm2": 11,
   "centroid": {
    "latitude": 48.030277777,
    "longitude": 14.199444444
   },
   "settlementClass": null
  },
  {
   "externalId": "10603",
   "name": "Hirm",
   "aliases": [],
   "stateCode": "1",
   "stateName": "Burgenland",
   "districtCode": "106",
   "districtName": "Bezirk Mattersburg",
   "population": 1009,
   "areaKm2": 3.12,
   "centroid": {
    "latitude": 47.787777777,
    "longitude": 16.455555555
   },
   "settlementClass": null
  },
  {
   "externalId": "50612",
   "name": "Maria Alm am Steinernen Meer",
   "aliases": [],
   "stateCode": "5",
   "stateName": "Salzburg",
   "districtCode": "506",
   "districtName": "Bezirk Zell am See",
   "population": 2197,
   "areaKm2": 125.41,
   "centroid": {
    "latitude": 47.383333333,
    "longitude": 12.9
   },
   "settlementClass": null
  },
  {
   "externalId": "70315",
   "name": "Grinzens",
   "aliases": [],
   "stateCode": "7",
   "stateName": "Tirol",
   "districtCode": "703",
   "districtName": "Bezirk Innsbruck-Land",
   "population": 1410,
   "areaKm2": 28.71,
   "centroid": {
    "latitude": 47.226944444,
    "longitude": 11.250555555
   },
   "settlementClass": null
  },
  {
   "externalId": "41316",
   "name": "Kleinzell im Mühlkreis",
   "aliases": [],
   "stateCode": "4",
   "stateName": "Oberösterreich",
   "districtCode": "413",
   "districtName": "Bezirk Rohrbach",
   "population": 1546,
   "areaKm2": 16,
   "centroid": {
    "latitude": 48.456666666,
    "longitude": 13.995833333
   },
   "settlementClass": null
  },
  {
   "externalId": "32327",
   "name": "Sollenau",
   "aliases": [],
   "stateCode": "3",
   "stateName": "Niederösterreich",
   "districtCode": "323",
   "districtName": "Bezirk Wiener Neustadt",
   "population": 5038,
   "areaKm2": 10.67,
   "centroid": {
    "latitude": 47.9,
    "longitude": 16.25
   },
   "settlementClass": null
  },
  {
   "externalId": "61262",
   "name": "Öblarn",
   "aliases": [],
   "stateCode": "6",
   "stateName": "Steiermark",
   "districtCode": "612",
   "districtName": "Bezirk Liezen",
   "population": 2024,
   "areaKm2": 49.16,
   "centroid": {
    "latitude": 47.45,
    "longitude": 14.008055555
   },
   "settlementClass": null
  },
  {
   "externalId": "10415",
   "name": "Stinatz",
   "aliases": [],
   "stateCode": "1",
   "stateName": "Burgenland",
   "districtCode": "104",
   "districtName": "Bezirk Güssing",
   "population": 1263,
   "areaKm2": 9.5,
   "centroid": {
    "latitude": 47.203888888,
    "longitude": 16.133333333
   },
   "settlementClass": null
  },
  {
   "externalId": "80206",
   "name": "Bizau",
   "aliases": [],
   "stateCode": "8",
   "stateName": "Vorarlberg",
   "districtCode": "802",
   "districtName": "Bezirk Bregenz",
   "population": 1113,
   "areaKm2": 21.08,
   "centroid": {
    "latitude": 47.368888888,
    "longitude": 9.923333333
   },
   "settlementClass": null
  },
  {
   "externalId": "62271",
   "name": "Ilz",
   "aliases": [],
   "stateCode": "6",
   "stateName": "Steiermark",
   "districtCode": "622",
   "districtName": "Bezirk Hartberg-Fürstenfeld",
   "population": 3736,
   "areaKm2": 39.26,
   "centroid": {
    "latitude": 47.086666666,
    "longitude": 15.926111111
   },
   "settlementClass": null
  },
  {
   "externalId": "70354",
   "name": "Hall in Tirol",
   "aliases": [],
   "stateCode": "7",
   "stateName": "Tirol",
   "districtCode": "703",
   "districtName": "Bezirk Innsbruck-Land",
   "population": 14771,
   "areaKm2": 5.54,
   "centroid": {
    "latitude": 47.283333333,
    "longitude": 11.5
   },
   "settlementClass": null
  },