[
 {
  "provider": "osm",
  "providerResultId": "node/67353988",
  "name": "Erika & Kurt",
  "category": "tattoo",
  "latitude": 51.0634525,
  "longitude": 13.7576775,
  "address": "Bautzner Straße 63",
  "city": "Dresden",
  "postalCode": "01099",
  "websiteUrl": "https://erika-und-kurt.de/",
  "socialUrl": null,
  "phone": null,
  "email": null,
  "sourceUrl": "https://www.openstreetmap.org/node/67353988"
 },
 {
  "provider": "osm",
  "providerResultId": "node/261176452",
  "name": "ThorTattoo",
  "category": "tattoo",
  "latitude": 51.5840354,
  "longitude": 6.2414882,
  "address": null,
  "city": "Kevelaer",
  "postalCode": "47623",
  "websiteUrl": null,
  "socialUrl": null,
  "phone": null,
  "email": null,
  "sourceUrl": "https://www.openstreetmap.org/node/261176452"
 },
 {
  "provider": "osm",
  "providerResultId": "node/262015609",
  "name": "Fetacho Ink.",
  "category": "tattoo",
  "latitude": 49.3502,
  "longitude": 8.1375786,
  "address": null,
  "city": null,
  "postalCode": null,
  "websiteUrl": null,
  "socialUrl": null,
  "phone": null,
  "email": null,
  "sourceUrl": "https://www.openstreetmap.org/node/262015609"
 },
 {
  "provider": "osm",
  "providerResultId": "node/263884004",
  "name": "Zeal‘s Tattoo Atelier",
  "category": "tattoo",
  "latitude": 48.1283512,
  "longitude": 11.5982848,
  "address": "Weißenburger Straße 24",
  "city": "München",
  "postalCode": "81667",
  "websiteUrl": null,
  "socialUrl": null,
  "phone": null,
  "email": null,
  "sourceUrl": "https://www.openstreetmap.org/node/263884004"
 },
 {
  "provider": "osm",
  "providerResultId": "node/264733773",
  "name": "Point Noir",
  "category": "tattoo",
  "latitude": 51.3724761,
  "longitude": 7.1371272,
  "address": "Bonsfelder Straße 101",
  "city": null,
  "postalCode": null,
  "websiteUrl": null,
  "socialUrl": null,
  "phone": null,
  "email": null,
  "sourceUrl": "https://www.openstreetmap.org/node/264733773"
 },
 {
  "provider": "osm",
  "providerResultId": "node/269754356",
  "name": "K.Tattoostudio",
  "category": "tattoo",
  "latitude": 51.1610834,
  "longitude": 6.668962,
  "address": "Martinstraße 4",
  "city": "Neuss",
  "postalCode": "41472",
  "websiteUrl": "https://www.k-tattoostudio.de/",
  "socialUrl": "https://www.instagram.com/k.tattoo.studio/",
  "phone": "+49 1575 6052403",
  "email": "k.tattoo.neuss@gmail.com",
  "sourceUrl": "https://www.openstreetmap.org/node/269754356"
 },
 {
  "provider": "osm",
  "providerResultId": "node/282431617",
  "name": "Chile Hot Ink",
  "category": "tattoo",
  "latitude": 52.5161427,
  "longitude": 13.4558786,
  "address": null,
  "city": null,
  "postalCode": null,
  "websiteUrl": null,
  "socialUrl": null,
  "phone": null,
  "email": null,
  "sourceUrl": "https://www.openstreetmap.org/node/282431617"
 },
 {
  "provider": "osm",
  "providerResultId": "node/290752546",
  "name": "Bavaria Tattoo",
  "category": "tattoo",
  "latitude": 48.3130694,
  "longitude": 11.6636526,
  "address": null,
  "city": null,
  "postalCode": null,
  "websiteUrl": null,
  "socialUrl": null,
  "phone": null,
  "email": null,
  "sourceUrl": "https://www.openstreetmap.org/node/290752546"
 },
 {
  "provider": "osm",
  "providerResultId": "node/291008532",
  "name": "Heftig Tattoo",
  "category": "tattoo",
  "latitude": 53.071204,
  "longitude": 8.8263909,
  "address": "Seilerstraße 25",
  "city": "Bremen",
  "postalCode": "28203",
  "websiteUrl": null,
  "socialUrl": null,
  "phone": null,
  "email": null,
  "sourceUrl": "https://www.openstreetmap.org/node/291008532"
 },
 {
  "provider": "osm",
  "providerResultId": "node/291898770",
  "name": "Tattoo's not dead",
  "category": "tattoo",
  "latitude": 48.1477875,
  "longitude": 11.5954125,
  "address": "Emil-Riedel-Straße 21",
  "city": "München",
  "postalCode": "80538",
  "websiteUrl": null,
  "socialUrl": null,
  "phone": null,
  "email": "michalpietrik31@gmail.com",
  "sourceUrl": "https://www.openstreetmap.org/node/291898770"
 },
 {
  "provider": "osm",
  "providerResultId": "node/294004804",
  "name": "Zeros Tattoos",
  "category": "tattoo",
  "latitude": 53.0967378,
  "longitude": 8.783873,
  "address": null,
  "city": null,
  "postalCode": null,
  "websiteUrl": null,
  "socialUrl": null,
  "phone": null,
  "email": null,
  "sourceUrl": "https://www.openstreetmap.org/node/294004804"
 },
 {
  "provider": "osm",
  "providerResultId": "node/295010685",
  "name": "Kreative Juncttion",
  "category": "tattoo",
  "latitude": 51.8386267,
  "longitude": 6.6233424,
  "address": null,
  "city": null,
  "postalCode": null,
  "websiteUrl": null,
  "socialUrl": null,
  "phone": null,
  "email": null,
  "sourceUrl": "https://www.openstreetmap.org/node/295010685"
 },
 {
  "provider": "osm",
  "providerResultId": "node/305262628",
  "name": "Höllenregen Tätowierungen",
  "category": "tattoo",
  "latitude": 50.9329459,
  "longitude": 7.2831374,
  "address": "Hauptstraße 33",
  "city": "Overath",
  "postalCode": "51491",
  "websiteUrl": null,
  "socialUrl": null,
  "phone": null,
  "email": null,
  "sourceUrl": "https://www.openstreetmap.org/node/305262628"
 },
 {
  "provider": "osm",
  "providerResultId": "node/307448920",
  "name": "Tattoo House of Ink",
  "category": "tattoo",
  "latitude": 50.9684376,
  "longitude": 11.0512996,
  "address": null,
  "city": null,
  "postalCode": null,
  "websiteUrl": null,
  "socialUrl": null,
  "phone": null,
  "email": null,
  "sourceUrl": "https://www.openstreetmap.org/node/307448920"
 },
 {
  "provider": "osm",
  "providerResultId": "node/317394026",
  "name": "ELEA® Tattoo Studio & Fineline Lübeck",
  "category": "tattoo",
  "latitude": 53.8619181,
  "longitude": 10.6642007,
  "address": "Hansestraße 97",
  "city": "Lübeck",
  "postalCode": "23558",
  "websiteUrl": "https://elea-tattoo.de/",
  "socialUrl": null,
  "phone": "+49 1575 0421043",
  "email": null,
  "sourceUrl": "https://www.openstreetmap.org/node/317394026"
 },
 {
  "provider": "osm",
  "providerResultId": "node/320557199",
  "name": "Black Point Tattoo Studio",
  "category": "tattoo",
  "latitude": 50.8008798,
  "longitude": 6.4838516,
  "address": "Annaplatz 4",
  "city": "Düren",
  "postalCode": "52349",
  "websiteUrl": null,
  "socialUrl": null,
  "phone": null,
  "email": null,
  "sourceUrl": "https://www.openstreetmap.org/node/320557199"
 },
 {
  "provider": "osm",
  "providerResultId": "node/323182138",
  "name": "Hieb & Stichfest Tattoo",
  "category": "tattoo",
  "latitude": 51.9405318,
  "longitude": 7.170383,
  "address": "Bahnhofstraße 56",
  "city": "Coesfeld",
  "postalCode": "48653",
  "websiteUrl": null,
  "socialUrl": null,
  "phone": null,
  "email": null,
  "sourceUrl": "https://www.openstreetmap.org/node/323182138"
 },
 {
  "provider": "osm",
  "providerResultId": "node/324314764",
  "name": "The Source",
  "category": "tattoo",
  "latitude": 51.9403683,
  "longitude": 7.1677258,
  "address": "Letter Straße 48",
  "city": "Coesfeld",
  "postalCode": "48653",
  "websiteUrl": null,
  "socialUrl": null,
  "phone": null,
  "email": null,
  "sourceUrl": "https://www.openstreetmap.org/node/324314764"
 },
 {
  "provider": "osm",
  "providerResultId": "node/333980700",
  "name": "Desire",
  "category": "tattoo",
  "latitude": 48.5852421,
  "longitude": 13.4784577,
  "address": null,
  "city": null,
  "postalCode": null,
  "websiteUrl": "https://desire-tattoo.de",
  "socialUrl": null,
  "phone": "+49 851 20960442",
  "email": "info@desire-tattoo.de",
  "sourceUrl": "https://www.openstreetmap.org/node/333980700"
 },
 {
  "provider": "osm",
  "providerResultId": "node/340095033",
  "name": "Pain Department (Tatoo & Pircings)",
  "category": "tattoo",
  "latitude": 48.4686162,
  "longitude": 7.946531,
  "address": null,
  "city": null,
  "postalCode": null,
  "websiteUrl": null,
  "socialUrl": null,
  "phone": null,
  "email": null,
  "sourceUrl": "https://www.openstreetmap.org/node/340095033"
 },
 {
  "provider": "osm",
  "providerResultId": "node/345570987",
  "name": "Mistfink",
  "category": "tattoo",
  "latitude": 51.0715905,
  "longitude": 13.7275377,
  "address": "Leipziger Straße 36",
  "city": "Dresden",
  "postalCode": "01127",
  "websiteUrl": "https://www.mistfink.com/",
  "socialUrl": null,
  "phone": null,
  "email": "info@mistfink.com",
  "sourceUrl": "https://www.openstreetmap.org/node/345570987"
 },
 {
  "provider": "osm",
  "providerResultId": "node/355725055",
  "name": "Dark Silence Tatoo",
  "category": "tattoo",
  "latitude": 49.3109465,
  "longitude": 7.05999,
  "address": null,
  "city": null,
  "postalCode": null,
  "websiteUrl": null,
  "socialUrl": null,
  "phone": null,
  "email": null,
  "sourceUrl": "https://www.openstreetmap.org/node/355725055"
 },
 {
  "provider": "osm",
  "providerResultId": "node/355792209",
  "name": "Eternal Delight",
  "category": "tattoo",
  "latitude": 52.4015754,
  "longitude": 9.7855407,
  "address": null,
  "city": null,
  "postalCode": null,
  "websiteUrl": null,
  "socialUrl": null,
  "phone": "+495113970773",
  "email": null,
  "sourceUrl": "https://www.openstreetmap.org/node/355792209"
 },
 {
  "provider": "osm",
  "providerResultId": "node/359685594",
  "name": "Tattoo bei Hartmut",
  "category": "tattoo",
  "latitude": 51.5275798,
  "longitude": 7.3226202,
  "address": null,
  "city": null,
  "postalCode": null,
  "websiteUrl": null,
  "socialUrl": null,
  "phone": null,
  "email": null,
  "sourceUrl": "https://www.openstreetmap.org/node/359685594"
 },
 {
  "provider": "osm",
  "providerResultId": "node/364138840",
  "name": "Moria",
  "category": "tattoo",
  "latitude": 53.554578,
  "longitude": 9.9799941,
  "address": null,
  "city": null,
  "postalCode": null,
  "websiteUrl": null,
  "socialUrl": null,
  "phone": null,
  "email": null,
  "sourceUrl": "https://www.openstreetmap.org/node/364138840"
 },
 {
  "provider": "osm",
  "providerResultId": "node/365354892",
  "name": "Brok Ink Tattoo",
  "category": "tattoo",
  "latitude": 51.4057937,
  "longitude": 6.7114669,
  "address": null,
  "city": null,
  "postalCode": null,
  "websiteUrl": null,
  "socialUrl": null,
  "phone": null,
  "email": null,
  "sourceUrl": "https://www.openstreetmap.org/node/365354892"
 },
 {
  "provider": "osm",
  "providerResultId": "node/368392191",
  "name": "La Ligné",
  "category": "tattoo",
  "latitude": 52.3717336,
  "longitude": 9.7332145,
  "address": "Kramerstraße",
  "city": null,
  "postalCode": null,
  "websiteUrl": null,
  "socialUrl": null,
  "phone": "+49 511 3068818",
  "email": null,
  "sourceUrl": "https://www.openstreetmap.org/node/368392191"
 },
 {
  "provider": "osm",
  "providerResultId": "node/380448401",
  "name": "Tattoodesign Semper Fi",
  "category": "tattoo",
  "latitude": 51.6464381,
  "longitude": 12.3667353,
  "address": "Lindenplatz 16",
  "city": "Muldestausee",
  "postalCode": "06774",
  "websiteUrl": null,
  "socialUrl": null,
  "phone": null,
  "email": "Jessi.1990.jo@gmail.de",
  "sourceUrl": "https://www.openstreetmap.org/node/380448401"
 },
 {
  "provider": "osm",
  "providerResultId": "node/387280151",
  "name": "INK GARDEN Tattooing",
  "category": "tattoo",
  "latitude": 50.9414442,
  "longitude": 6.951604,
  "address": null,
  "city": null,
  "postalCode": null,
  "websiteUrl": "https://www.inkgarden.de/",
  "socialUrl": null,
  "phone": "+49 176 32101841",
  "email": null,
  "sourceUrl": "https://www.openstreetmap.org/node/387280151"
 },
 {
  "provider": "osm",
  "providerResultId": "node/403395067",
  "name": "Trust Bodymodification",
  "category": "tattoo",
  "latitude": 51.0628521,
  "longitude": 13.7496207,
  "address": "Bautzner Straße 4",
  "city": "Dresden",
  "postalCode": "01099",
  "websiteUrl": "https://www.trust-dresden.de/",
  "socialUrl": null,
  "phone": null,
  "email": null,
  "sourceUrl": "https://www.openstreetmap.org/node/403395067"
 },
 {
  "provider": "osm",
  "providerResultId": "node/403774695",
  "name": "Blue Spark",
  "category": "tattoo",
  "latitude": 53.5980285,
  "longitude": 9.8611991,
  "address": "Luruper Hauptstraße 258",
  "city": null,
  "postalCode": "22547",
  "websiteUrl": null,
  "socialUrl": null,
  "phone": null,
  "email": null,
  "sourceUrl": "https://www.openstreetmap.org/node/403774695"
 },
 {
  "provider": "osm",
  "providerResultId": "node/409767248",
  "name": "Smoky Tattoos",
  "category": "tattoo",
  "latitude": 53.920511,
  "longitude": 10.6973034,
  "address": null,
  "city": null,
  "postalCode": null,
  "websiteUrl": "http://smoky-tattoos.de/",
  "socialUrl": null,
  "phone": "+49 451 14038366",
  "email": "smoky-tattoos@web.de",
  "sourceUrl": "https://www.openstreetmap.org/node/409767248"
 },
 {
  "provider": "osm",
  "providerResultId": "node/411456336",
  "name": "Völschi`s",
  "category": "tattoo",
  "latitude": 54.1067339,
  "longitude": 11.8980125,
  "address": "Am Markt 7",
  "city": "Bad Doberan",
  "postalCode": "18209",
  "websiteUrl": null,
  "socialUrl": null,
  "phone": null,
  "email": null,
  "sourceUrl": "https://www.openstreetmap.org/node/411456336"
 },
 {
  "provider": "osm",
  "providerResultId": "node/412513521",
  "name": "Trash Polka",
  "category": "tattoo",
  "latitude": 49.790121,
  "longitude": 9.9317846,
  "address": "Peterstraße 1",
  "city": "Würzburg",
  "postalCode": "97070",
  "websiteUrl": "https://trashpolka.com/",
  "socialUrl": null,
  "phone": "+49 931 702656",
  "email": "info@buenavistatattooclub.com",
  "sourceUrl": "https://www.openstreetmap.org/node/412513521"
 },
 {
  "provider": "osm",
  "providerResultId": "node/424385067",
  "name": "Tattoo & Piercing Reinkaos",
  "category": "tattoo",
  "latitude": 51.0907633,
  "longitude": 12.1733347,
  "address": "Bornitzer Hauptstraße 2",
  "city": "Elsteraue",
  "postalCode": "06729",
  "websiteUrl": null,
  "socialUrl": null,
  "phone": null,
  "email": null,
  "sourceUrl": "https://www.openstreetmap.org/node/424385067"
 },
 {
  "provider": "osm",
  "providerResultId": "node/455007850",
  "name": "Körperkult 21 Tattoo",
  "category": "tattoo",
  "latitude": 47.7353932,
  "longitude": 9.2439451,
  "address": null,
  "city": null,
  "postalCode": null,
  "websiteUrl": null,
  "socialUrl": null,
  "phone": null,
  "email": null,
  "sourceUrl": "https://www.openstreetmap.org/node/455007850"
 },
 {
  "provider": "osm",
  "providerResultId": "node/458484118",
  "name": "Dani Banu Tattoo",
  "category": "tattoo",
  "latitude": 48.5300979,
  "longitude": 9.304906,
  "address": null,
  "city": null,
  "postalCode": null,
  "websiteUrl": "https://danibanutattoo.de/",
  "socialUrl": null,
  "phone": "+49 1525 5652059",
  "email": "danibanutattoo@web.de",
  "sourceUrl": "https://www.openstreetmap.org/node/458484118"
 },
 {
  "provider": "osm",
  "providerResultId": "node/469879390",
  "name": "Coal Black Tatoo Studio",
  "category": "tattoo",
  "latitude": 50.2634387,
  "longitude": 10.9658765,
  "address": "Heiligkreuzstraße 9",
  "city": "Coburg",
  "postalCode": "96450",
  "websiteUrl": null,
  "socialUrl": "https://www.instagram.com/coalblack.tattoostudio",
  "phone": null,
  "email": null,
  "sourceUrl": "https://www.openstreetmap.org/node/469879390"
 },
 {
  "provider": "osm",
  "providerResultId": "node/469972167",
  "name": "Tattoo Zeitlos",
  "category": "tattoo",
  "latitude": 53.2770514,
  "longitude": 9.716804,
  "address": "Bahnhofstraße 32",
  "city": "Tostedt",
  "postalCode": "21255",
  "websiteUrl": null,
  "socialUrl": null,
  "phone": null,
  "email": null,
  "sourceUrl": "https://www.openstreetmap.org/node/469972167"
 },
 {
  "provider": "osm",
  "providerResultId": "node/471134937",
  "name": "Ying Yang Tattoo",
  "category": "tattoo",
  "latitude": 52.4553864,
  "longitude": 13.3760095,
  "address": null,
  "city": null,
  "postalCode": null,
  "websiteUrl": null,
  "socialUrl": null,
  "phone": null,
  "email": null,
  "sourceUrl": "https://www.openstreetmap.org/node/471134937"
 },
 {
  "provider": "osm",
  "providerResultId": "node/491591122",
  "name": "Village-Ink Tatoos",
  "category": "tattoo",
  "latitude": 52.4388094,
  "longitude": 9.7047676,
  "address": "Alt-Godshorn 80",
  "city": "Langenhagen",
  "postalCode": "30855",
  "websiteUrl": null,
  "socialUrl": null,
  "phone": "+49 1520 4840350",
  "email": null,
  "sourceUrl": "https://www.openstreetmap.org/node/491591122"
 },
 {
  "provider": "osm",
  "providerResultId": "node/506541895",
  "name": "Tattoostudio \"Lebenslang\"",
  "category": "tattoo",
  "latitude": 50.9324091,
  "longitude": 12.8251603,
  "address": null,
  "city": null,
  "postalCode": null,
  "websiteUrl": null,
  "socialUrl": null,
  "phone": null,
  "email": null,
  "sourceUrl": "https://www.openstreetmap.org/node/506541895"
 },
 {
  "provider": "osm",
  "providerResultId": "node/506706577",
  "name": "VeAn Tattoo",
  "category": "tattoo",
  "latitude": 52.5165571,
  "longitude": 13.4611428,
  "address": "Proskauer Straße 8",
  "city": "Berlin",
  "postalCode": "10247",
  "websiteUrl": "https://vean-tattoo.de/tatu-salony/berlin-black",
  "socialUrl": null,
  "phone": "+49 30 52015135",
  "email": null,
  "sourceUrl": "https://www.openstreetmap.org/node/506706577"
 },
 {
  "provider": "osm",
  "providerResultId": "node/528005728",
  "name": "Paaradox",
  "category": "tattoo",
  "latitude": 49.5075873,
  "longitude": 11.4295894,
  "address": "Rudolf-Wetzer-Straße 1",
  "city": "Hersbruck",
  "postalCode": "91217",
  "websiteUrl": null,
  "socialUrl": null,
  "phone": null,
  "email": null,
  "sourceUrl": "https://www.openstreetmap.org/node/528005728"
 },
 {
  "provider": "osm",
  "providerResultId": "node/530228615",
  "name": "Nadelkissen Tattoo & Piercing",
  "category": "tattoo",
  "latitude": 50.8881977,
  "longitude": 10.0081288,
  "address": "Hauptstraße 28",
  "city": "Heringen (Werra)",
  "postalCode": "36266",
  "websiteUrl": "https://www.nadelkissen-tattoo.de",
  "socialUrl": null,
  "phone": "+49 6624 4513106",
  "email": "info@nadelkissen-tattoo.de",
  "sourceUrl": "https://www.openstreetmap.org/node/530228615"
 },
 {
  "provider": "osm",
  "providerResultId": "node/539491763",
  "name": "Temple of Visions",
  "category": "tattoo",
  "latitude": 52.467243,
  "longitude": 13.490873,
  "address": "Glanzstraße 5",
  "city": "Berlin",
  "postalCode": "12437",
  "websiteUrl": "https://temple-of-visions.de/",
  "socialUrl": null,
  "phone": "+49 30 53000093",
  "email": null,
  "sourceUrl": "https://www.openstreetmap.org/node/539491763"
 },
 {
  "provider": "osm",
  "providerResultId": "node/566637468",
  "name": "Morbus Gravis",
  "category": "tattoo",
  "latitude": 49.8722568,
  "longitude": 8.6479818,
  "address": null,
  "city": null,
  "postalCode": null,
  "websiteUrl": "https://morbus-gravis.de",
  "socialUrl": null,
  "phone": "+49 6151 25240",
  "email": null,
  "sourceUrl": "https://www.openstreetmap.org/node/566637468"
 },
 {
  "provider": "osm",
  "providerResultId": "node/568343700",
  "name": "Tattoo & Mehndi Studio Glückstadt",
  "category": "tattoo",
  "latitude": 53.7888226,
  "longitude": 9.4212608,
  "address": null,
  "city": null,
  "postalCode": null,
  "websiteUrl": "http://www.m-sg.de",
  "socialUrl": null,
  "phone": "+49 4124 980538",
  "email": null,
  "sourceUrl": "https://www.openstreetmap.org/node/568343700"
 },
 {
  "provider": "osm",
  "providerResultId": "node/575881737",
  "name": "Stichpunkt",
  "category": "tattoo",
  "latitude": 47.9963943,
  "longitude": 7.8348247,
  "address": null,
  "city": null,
  "postalCode": null,
  "websiteUrl": null,
  "socialUrl": null,
  "phone": "+49 761 48899966",
  "email": null,
  "sourceUrl": "https://www.openstreetmap.org/node/575881737"
 },
 {
  "provider": "osm",
  "providerResultId": "node/585142534",
  "name": "Tattoo Circle",
  "category": "tattoo",
  "latitude": 48.0002144,
  "longitude": 7.837387,
  "address": null,
  "city": null,
  "postalCode": null,
  "websiteUrl": "https://www.tattoo-circle-freiburg.de/",
  "socialUrl": null,
  "phone": null,
  "email": "TC-TATTOO-CIRCLE@gmx.de",
  "sourceUrl": "https://www.openstreetmap.org/node/585142534"
 },
 {
  "provider": "osm",
  "providerResultId": "node/617816504",
  "name": "Impressive Tattoo Cologne",
  "category": "tattoo",
  "latitude": 50.9388165,
  "longitude": 6.9501044,
  "address": null,
  "city": null,
  "postalCode": null,
  "websiteUrl": null,
  "socialUrl": "https://instagram.com/impressive_tattoo_cologne",
  "phone": null,
  "email": null,
  "sourceUrl": "https://www.openstreetmap.org/node/617816504"
 },
 {
  "provider": "osm",
  "providerResultId": "node/619844027",
  "name": "Atelier Subtil",
  "category": "tattoo",
  "latitude": 54.0878117,
  "longitude": 12.1133123,
  "address": "Waldemarstraße 11b",
  "city": "Rostock",
  "postalCode": "18057",
  "websiteUrl": null,
  "socialUrl": null,
  "phone": null,
  "email": null,
  "sourceUrl": "https://www.openstreetmap.org/node/619844027"
 },
 {
  "provider": "osm",
  "providerResultId": "node/628598554",
  "name": "Tattoo Lounge",
  "category": "tattoo",
  "latitude": 48.2512569,
  "longitude": 11.6516749,
  "address": "Rathausplatz 13",
  "city": "Garching bei München",
  "postalCode": "85748",
  "websiteUrl": "https://www.tattoo-garching.de/",
  "socialUrl": null,
  "phone": null,
  "email": null,
  "sourceUrl": "https://www.openstreetmap.org/node/628598554"
 },
 {
  "provider": "osm",
  "providerResultId": "node/632835378",
  "name": "Studio Müllerova",
  "category": "tattoo",
  "latitude": 51.3321768,
  "longitude": 12.3325809,
  "address": "Merseburger Straße 37",
  "city": "Leipzig",
  "postalCode": "04177",
  "websiteUrl": null,
  "socialUrl": null,
  "phone": null,
  "email": null,
  "sourceUrl": "https://www.openstreetmap.org/node/632835378"
 },
 {
  "provider": "osm",
  "providerResultId": "node/633659991",
  "name": "Bekö Art",
  "category": "tattoo",
  "latitude": 51.3343329,
  "longitude": 12.3822849,
  "address": null,
  "city": null,
  "postalCode": null,
  "websiteUrl": "https://bekoe-art.de/",
  "socialUrl": null,
  "phone": null,
  "email": null,
  "sourceUrl": "https://www.openstreetmap.org/node/633659991"
 },
 {
  "provider": "osm",
  "providerResultId": "node/664249684",
  "name": "City Tattoo Magdeburg",
  "category": "tattoo",
  "latitude": 52.1153813,
  "longitude": 11.6127105,
  "address": "Halberstädter Straße 37",
  "city": "Magdeburg",
  "postalCode": "39112",
  "websiteUrl": null,
  "socialUrl": null,
  "phone": "+49 391 6076 255",
  "email": null,
  "sourceUrl": "https://www.openstreetmap.org/node/664249684"
 },
 {
  "provider": "osm",
  "providerResultId": "node/666138436",
  "name": "InkSanity",
  "category": "tattoo",
  "latitude": 48.1290703,
  "longitude": 11.3624968,
  "address": "Bahnhofplatz 12",
  "city": "Germering",
  "postalCode": "82110",
  "websiteUrl": "https://www.tattooinksanity.net/",
  "socialUrl": null,
  "phone": null,
  "email": null,
  "sourceUrl": "https://www.openstreetmap.org/node/666138436"
 },
 {
  "provider": "osm",
  "providerResultId": "node/666342601",
  "name": "Tattoo- & Piercingstudio Paderborn „Am Westerntor“",
  "category": "tattoo",
  "latitude": 51.7151722,
  "longitude": 8.7469494,
  "address": "Le-Mans-Wall 23",
  "city": "Paderborn",
  "postalCode": "33098",
  "websiteUrl": "https://www.tattoo-paderborn.com",
  "socialUrl": null,
  "phone": "+49 8733093",
  "email": null,
  "sourceUrl": "https://www.openstreetmap.org/node/666342601"
 },
 {
  "provider": "osm",
  "providerResultId": "node/668246102",
  "name": "1000berlin37",
  "category": "tattoo",
  "latitude": 52.4501698,
  "longitude": 13.2535619,
  "address": "Ladenstraße 30",
  "city": "Berlin",
  "postalCode": "14169",
  "websiteUrl": "http://www.instagram.com/1000berlin37",
  "socialUrl": null,
  "phone": null,
  "email": null,
  "sourceUrl": "https://www.openstreetmap.org/node/668246102"
 },
 {
  "provider": "osm",
  "providerResultId": "node/670017768",
  "name": "Cosanostra",
  "category": "tattoo",
  "latitude": 48.3969341,
  "longitude": 9.9884047,
  "address": null,
  "city": null,
  "postalCode": null,
  "websiteUrl": null,
  "socialUrl": null,
  "phone": null,
  "email": null,
  "sourceUrl": "https://www.openstreetmap.org/node/670017768"
 },
 {
  "provider": "osm",
  "providerResultId": "node/672742357",
  "name": "Javad Piercing",
  "category": "tattoo",
  "latitude": 49.4396323,
  "longitude": 7.7715118,
  "address": null,
  "city": null,
  "postalCode": null,
  "websiteUrl": null,
  "socialUrl": null,
  "phone": null,
  "email": null,
  "sourceUrl": "https://www.openstreetmap.org/node/672742357"
 },
 {
  "provider": "osm",
  "providerResultId": "node/675758087",
  "name": "Pain for pleasure tattoo",
  "category": "tattoo",
  "latitude": 47.7259396,
  "longitude": 10.3166493,
  "address": null,
  "city": null,
  "postalCode": null,
  "websiteUrl": null,
  "socialUrl": null,
  "phone": null,
  "email": null,
  "sourceUrl": "https://www.openstreetmap.org/node/675758087"
 },
 {
  "provider": "osm",
  "providerResultId": "node/677442831",
  "name": "Black Angel Tattioo Cologne",
  "category": "tattoo",
  "latitude": 50.9562747,
  "longitude": 6.9191473,
  "address": null,
  "city": null,
  "postalCode": null,
  "websiteUrl": "https://black-angel-tattoo.de/",
  "socialUrl": null,
  "phone": null,
  "email": null,
  "sourceUrl": "https://www.openstreetmap.org/node/677442831"
 },
 {
  "provider": "osm",
  "providerResultId": "node/687951365",
  "name": "Tattoostudio Hautkontakt",
  "category": "tattoo",
  "latitude": 48.3659616,
  "longitude": 10.8955247,
  "address": "Zeuggasse 13",
  "city": "Augsburg",
  "postalCode": "86150",
  "websiteUrl": "http://www.tattoo-hautkontakt.de",
  "socialUrl": null,
  "phone": "+49 821 5080364",
  "email": null,
  "sourceUrl": "https://www.openstreetmap.org/node/687951365"
 },
 {
  "provider": "osm",
  "providerResultId": "node/687951416",
  "name": "Lifestyle Ink",
  "category": "tattoo",
  "latitude": 48.3630825,
  "longitude": 10.8998987,
  "address": "Ulrichsplatz 2",
  "city": "Augsburg",
  "postalCode": "86150",
  "websiteUrl": null,
  "socialUrl": null,
  "phone": null,
  "email": null,
  "sourceUrl": "https://www.openstreetmap.org/node/687951416"
 },
 {
  "provider": "osm",
  "providerResultId": "node/697623534",
  "name": "Skin Line Tattoo",
  "category": "tattoo",
  "latitude": 48.8588726,
  "longitude": 8.2091647,
  "address": "Bahnhofstraße 11",
  "city": "Rastatt",
  "postalCode": "76437",
  "websiteUrl": "https://skinlinetattoo.de/",
  "socialUrl": null,
  "phone": "+49 7222 595 1870",
  "email": null,
  "sourceUrl": "https://www.openstreetmap.org/node/697623534"
 },
 {
  "provider": "osm",
  "providerResultId": "node/698543475",
  "name": "Atelier Tietchen",
  "category": "tattoo",
  "latitude": 53.5643396,
  "longitude": 10.0582315,
  "address": "Caspar-Voght-Straße 92",
  "city": "Hamburg",
  "postalCode": "20535",
  "websiteUrl": null,
  "socialUrl": null,
  "phone": null,
  "email": null,
  "sourceUrl": "https://www.openstreetmap.org/node/698543475"
 },
 {
  "provider": "osm",
  "providerResultId": "node/698877024",
  "name": "Wildthing Tattoo + Piercing",
  "category": "tattoo",
  "latitude": 51.5052746,
  "longitude": 7.3409233,
  "address": null,
  "city": null,
  "postalCode": null,
  "websiteUrl": null,
  "socialUrl": null,
  "phone": null,
  "email": null,
  "sourceUrl": "https://www.openstreetmap.org/node/698877024"
 },
 {
  "provider": "osm",
  "providerResultId": "node/727699537",
  "name": "Tattoo.Art.Kat",
  "category": "tattoo",
  "latitude": 52.3740217,
  "longitude": 9.708054,
  "address": null,
  "city": null,
  "postalCode": null,
  "websiteUrl": null,
  "socialUrl": null,
  "phone": null,
  "email": null,
  "sourceUrl": "https://www.openstreetmap.org/node/727699537"
 },
 {
  "provider": "osm",
  "providerResultId": "node/728285719",
  "name": "The Chamber",
  "category": "tattoo",
  "latitude": 52.5453323,
  "longitude": 13.3709338,
  "address": "Reinickendorfer Straße 18a",
  "city": null,
  "postalCode": null,
  "websiteUrl": null,
  "socialUrl": null,
  "phone": null,
  "email": null,
  "sourceUrl": "https://www.openstreetmap.org/node/728285719"
 },
 {
  "provider": "osm",
  "providerResultId": "node/730925288",
  "name": "Boutique of Art",
  "category": "tattoo",
  "latitude": 54.0901945,
  "longitude": 12.1376994,
  "address": "Lange Straße 16",
  "city": "Rostock",
  "postalCode": "18055",
  "websiteUrl": null,
  "socialUrl": null,
  "phone": null,
  "email": null,
  "sourceUrl": "https://www.openstreetmap.org/node/730925288"
 },
 {
  "provider": "osm",
  "providerResultId": "node/760510734",
  "name": "Saint & Sinners Tattoolounge Dessau",
  "category": "tattoo",
  "latitude": 51.8362679,
  "longitude": 12.2395209,
  "address": "Antoinettenstraße 11",
  "city": "Dessau-Roßlau",
  "postalCode": "06844",
  "websiteUrl": null,
  "socialUrl": null,
  "phone": "+493402301655",
  "email": "saint-sinners@gmx.de",
  "sourceUrl": "https://www.openstreetmap.org/node/760510734"
 },
 {
  "provider": "osm",
  "providerResultId": "node/767285162",
  "name": "Tatoo Studio",
  "category": "tattoo",
  "latitude": 53.0792827,
  "longitude": 8.8051778,
  "address": null,
  "city": null,
  "postalCode": null,
  "websiteUrl": null,
  "socialUrl": null,
  "phone": null,
  "email": null,
  "sourceUrl": "https://www.openstreetmap.org/node/767285162"
 },
 {
  "provider": "osm",
  "providerResultId": "node/767955465",
  "name": "Tattoo Dobermann",
  "category": "tattoo",
  "latitude": 51.1789141,
  "longitude": 14.4234379,
  "address": "Äußere Lauenstraße 26",
  "city": "Bautzen",
  "postalCode": "02625",
  "websiteUrl": "https://www.dobermann-tattoo.de/",
  "socialUrl": null,
  "phone": "+49 3591 531636",
  "email": "DobTat@t-online.de",
  "sourceUrl": "https://www.openstreetmap.org/node/767955465"
 },
 {
  "provider": "osm",
  "providerResultId": "node/771219268",
  "name": "CLEOPATRA INK",
  "category": "tattoo",
  "latitude": 52.0255786,
  "longitude": 8.5317917,
  "address": "Bahnhofstraße 22",
  "city": "Bielefeld",
  "postalCode": "33602",
  "websiteUrl": null,
  "socialUrl": null,
  "phone": null,
  "email": null,
  "sourceUrl": "https://www.openstreetmap.org/node/771219268"
 },
 {
  "provider": "osm",
  "providerResultId": "node/771743260",
  "name": "Tattoostudio Münze",
  "category": "tattoo",
  "latitude": 51.3317351,
  "longitude": 12.3721764,
  "address": null,
  "city": null,
  "postalCode": null,
  "websiteUrl": null,
  "socialUrl": null,
  "phone": null,
  "email": null,
  "sourceUrl": "https://www.openstreetmap.org/node/771743260"
 },
 {
  "provider": "osm",
  "providerResultId": "node/773981000",
  "name": "Blackexcellence",
  "category": "hairdresser",
  "latitude": 52.4942276,
  "longitude": 13.3101691,
  "address": "Konstanzer Straße 15A",
  "city": "Berlin",
  "postalCode": "10707",
  "websiteUrl": "https://www.blackexcellence.berlin/",
  "socialUrl": null,
  "phone": "+49176 70861918",
  "email": null,
  "sourceUrl": "https://www.openstreetmap.org/node/773981000"
 },
 {
  "provider": "osm",
  "providerResultId": "node/798602499",
  "name": "Zapp Piercing",
  "category": "tattoo",
  "latitude": 54.0917483,
  "longitude": 12.1125192,
  "address": "Doberaner Straße 55",
  "city": "Rostock",
  "postalCode": "18057",
  "websiteUrl": "https://myspace.com/ironzapp",
  "socialUrl": null,
  "phone": "+49 152 36 81 84 30",
  "email": null,
  "sourceUrl": "https://www.openstreetmap.org/node/798602499"
 },
 {
  "provider": "osm",
  "providerResultId": "node/799280388",
  "name": "INK",
  "category": "tattoo",
  "latitude": 54.0913709,
  "longitude": 12.1361937,
  "address": "Pläterstraße 5",
  "city": "Rostock",
  "postalCode": "18055",
  "websiteUrl": "http://www.p5style.de/",
  "socialUrl": null,
  "phone": "+49 381 458 39 96",
  "email": null,
  "sourceUrl": "https://www.openstreetmap.org/node/799280388"
 },
 {
  "provider": "osm",
  "providerResultId": "node/800907893",
  "name": "House of Pain",
  "category": "tattoo",
  "latitude": 49.7964761,
  "longitude": 9.9354756,
  "address": "Semmelstraße 6",
  "city": "Würzburg",
  "postalCode": "97070",
  "websiteUrl": null,
  "socialUrl": null,
  "phone": null,
  "email": null,
  "sourceUrl": "https://www.openstreetmap.org/node/800907893"
 },
 {
  "provider": "osm",
  "providerResultId": "node/802366374",
  "name": "Mr Potattoo",
  "category": "tattoo",
  "latitude": 51.2528008,
  "longitude": 6.3932458,
  "address": null,
  "city": null,
  "postalCode": null,
  "websiteUrl": "https://www.mrpotattoo.de/",
  "socialUrl": null,
  "phone": "+49 2162 9192584",
  "email": null,
  "sourceUrl": "https://www.openstreetmap.org/node/802366374"
 },
 {
  "provider": "osm",
  "providerResultId": "node/807892194",
  "name": "Merrows Tattoo",
  "category": "tattoo",
  "latitude": 50.6616667,
  "longitude": 11.0980854,
  "address": null,
  "city": null,
  "postalCode": null,
  "websiteUrl": null,
  "socialUrl": null,
  "phone": null,
  "email": null,
  "sourceUrl": "https://www.openstreetmap.org/node/807892194"
 },
 {
  "provider": "osm",
  "providerResultId": "node/814766833",
  "name": "Liquid Ink",
  "category": "tattoo",
  "latitude": 49.1340735,
  "longitude": 9.222682,
  "address": null,
  "city": null,
  "postalCode": null,
  "websiteUrl": null,
  "socialUrl": null,
  "phone": null,
  "email": null,
  "sourceUrl": "https://www.openstreetmap.org/node/814766833"
 },
 {
  "provider": "osm",
  "providerResultId": "node/814769479",
  "name": "Tattoo & Pierce",
  "category": "tattoo",
  "latitude": 51.3259082,
  "longitude": 12.3734578,
  "address": null,
  "city": null,
  "postalCode": null,
  "websiteUrl": null,
  "socialUrl": null,
  "phone": null,
  "email": null,
  "sourceUrl": "https://www.openstreetmap.org/node/814769479"
 },
 {
  "provider": "osm",
  "providerResultId": "node/825071545",
  "name": "Queeg Queg Tattoo",
  "category": "tattoo",
  "latitude": 51.4350826,
  "longitude": 6.7641094,
  "address": null,
  "city": null,
  "postalCode": null,
  "websiteUrl": null,
  "socialUrl": null,
  "phone": null,
  "email": null,
  "sourceUrl": "https://www.openstreetmap.org/node/825071545"
 },
 {
  "provider": "osm",
  "providerResultId": "node/831824134",
  "name": "Sams Tattoo",
  "category": "tattoo",
  "latitude": 51.4377293,
  "longitude": 7.3374554,
  "address": null,
  "city": null,
  "postalCode": null,
  "websiteUrl": null,
  "socialUrl": "https://instagram.com/samstattoowitten",
  "phone": "+49 2302 585226",
  "email": null,
  "sourceUrl": "https://www.openstreetmap.org/node/831824134"
 },
 {
  "provider": "osm",
  "providerResultId": "node/832843215",
  "name": "Medusa",
  "category": "tattoo",
  "latitude": 48.1373725,
  "longitude": 11.5704,
  "address": "Altheimer Eck 11",
  "city": "München",
  "postalCode": "80331",
  "websiteUrl": "https://muenchen-tattoo-studio.de/",
  "socialUrl": null,
  "phone": "+49 89 269 313",
  "email": null,
  "sourceUrl": "https://www.openstreetmap.org/node/832843215"
 },
 {
  "provider": "osm",
  "providerResultId": "node/846353667",
  "name": "Inkspiration",
  "category": "tattoo",
  "latitude": 51.4379559,
  "longitude": 7.33116,
  "address": null,
  "city": null,
  "postalCode": null,
  "websiteUrl": "http://www.inkspiration-tattoo.de/",
  "socialUrl": null,
  "phone": "+49 1573 3250267",
  "email": "inkspirationtattoostudio@hotmail.com",
  "sourceUrl": "https://www.openstreetmap.org/node/846353667"
 },
 {
  "provider": "osm",
  "providerResultId": "node/903836191",
  "name": "Milan's Bodyshop",
  "category": "tattoo",
  "latitude": 53.5502436,
  "longitude": 9.9814229,
  "address": null,
  "city": null,
  "postalCode": null,
  "websiteUrl": null,
  "socialUrl": null,
  "phone": null,
  "email": null,
  "sourceUrl": "https://www.openstreetmap.org/node/903836191"
 },
 {
  "provider": "osm",
  "providerResultId": "node/914269993",
  "name": "Pro Pain Tattoo & Bodypiercing",
  "category": "tattoo",
  "latitude": 50.4730301,
  "longitude": 7.8002203,
  "address": null,
  "city": null,
  "postalCode": null,
  "websiteUrl": null,
  "socialUrl": null,
  "phone": null,
  "email": null,
  "sourceUrl": "https://www.openstreetmap.org/node/914269993"
 },
 {
  "provider": "osm",
  "providerResultId": "node/925251007",
  "name": "Tattoo Piercing",
  "category": "tattoo",
  "latitude": 51.0502178,
  "longitude": 13.7338666,
  "address": null,
  "city": null,
  "postalCode": null,
  "websiteUrl": null,
  "socialUrl": null,
  "phone": null,
  "email": null,
  "sourceUrl": "https://www.openstreetmap.org/node/925251007"
 },
 {
  "provider": "osm",
  "providerResultId": "node/926793275",
  "name": "Tattoostudio \"Hinter dem Spiegel\"",
  "category": "tattoo",
  "latitude": 49.4573464,
  "longitude": 8.4270483,
  "address": null,
  "city": null,
  "postalCode": null,
  "websiteUrl": null,
  "socialUrl": null,
  "phone": null,
  "email": null,
  "sourceUrl": "https://www.openstreetmap.org/node/926793275"
 },
 {
  "provider": "osm",
  "providerResultId": "node/940023517",
  "name": "South West Tattoo und Piercing Studio",
  "category": "tattoo",
  "latitude": 50.4136272,
  "longitude": 9.0078075,
  "address": null,
  "city": null,
  "postalCode": null,
  "websiteUrl": null,
  "socialUrl": null,
  "phone": null,
  "email": null,
  "sourceUrl": "https://www.openstreetmap.org/node/940023517"
 },
 {
  "provider": "osm",
  "providerResultId": "node/944675374",
  "name": "Life with Colors",
  "category": "tattoo",
  "latitude": 51.367042,
  "longitude": 12.3683254,
  "address": "Coppistraße 93",
  "city": "Leipzig",
  "postalCode": "04157",
  "websiteUrl": "https://www.lifewithcolours.com",
  "socialUrl": "https://instagram.com/lifewithcolourstattoo",
  "phone": "+49 341 9757860",
  "email": null,
  "sourceUrl": "https://www.openstreetmap.org/node/944675374"
 },
 {
  "provider": "osm",
  "providerResultId": "node/945677719",
  "name": "Buttgun Tattoo",
  "category": "tattoo",
  "latitude": 51.3050649,
  "longitude": 13.2981998,
  "address": "Friedrich-Engels-Straße 72",
  "city": "Riesa",
  "postalCode": "01587",
  "websiteUrl": null,
  "socialUrl": null,
  "phone": "+49 1522 9993179",
  "email": "ringoboettcher@web.de",
  "sourceUrl": "https://www.openstreetmap.org/node/945677719"
 },
 {
  "provider": "osm",
  "providerResultId": "node/951386814",
  "name": "Montagsmaler Tattoo & Graphix",
  "category": "tattoo",
  "latitude": 48.4595454,
  "longitude": 11.1297476,
  "address": "Hubmannstraße 12",
  "city": "Aichach",
  "postalCode": "86551",
  "websiteUrl": "http://montagsmaler-tattoo.de",
  "socialUrl": null,
  "phone": null,
  "email": null,
  "sourceUrl": "https://www.openstreetmap.org/node/951386814"
 },
 {
  "provider": "osm",
  "providerResultId": "node/959213152",
  "name": "Wallstreet Tattoo",
  "category": "tattoo",
  "latitude": 53.1427128,
  "longitude": 8.2129231,
  "address": null,
  "city": null,
  "postalCode": null,
  "websiteUrl": null,
  "socialUrl": null,
  "phone": null,
  "email": null,
  "sourceUrl": "https://www.openstreetmap.org/node/959213152"
 },
 {
  "provider": "osm",
  "providerResultId": "node/968101611",
  "name": "Tatooatelier Capricorn",
  "category": "tattoo",
  "latitude": 48.064046,
  "longitude": 11.6629124,
  "address": "Laurinweg 5",
  "city": "Ottobrunn",
  "postalCode": "85521",
  "websiteUrl": null,
  "socialUrl": null,
  "phone": null,
  "email": null,
  "sourceUrl": "https://www.openstreetmap.org/node/968101611"
 },
 {
  "provider": "osm",
  "providerResultId": "node/968949511",
  "name": "Powerhouse Tattoo",
  "category": "tattoo",
  "latitude": 50.9263269,
  "longitude": 6.9459084,
  "address": "Salierring 5",
  "city": "Köln",
  "postalCode": null,
  "websiteUrl": null,
  "socialUrl": null,
  "phone": null,
  "email": null,
  "sourceUrl": "https://www.openstreetmap.org/node/968949511"
 },
 {
  "provider": "osm",
  "providerResultId": "node/976217998",
  "name": "VIP Body Art",
  "category": "tattoo",
  "latitude": 49.1470971,
  "longitude": 9.2249324,
  "address": null,
  "city": null,
  "postalCode": null,
  "websiteUrl": null,
  "socialUrl": null,
  "phone": null,
  "email": null,
  "sourceUrl": "https://www.openstreetmap.org/node/976217998"
 },
 {
  "provider": "osm",
  "providerResultId": "node/976616097",
  "name": "Tom's Tattoo",
  "category": "tattoo",
  "latitude": 48.0668624,
  "longitude": 11.6647695,
  "address": "Putzbrunner Straße 19",
  "city": "Ottobrunn",
  "postalCode": "85521",
  "websiteUrl": "https://www.toms.tattoo/",
  "socialUrl": null,
  "phone": null,
  "email": null,
  "sourceUrl": "https://www.openstreetmap.org/node/976616097"
 },
 {
  "provider": "osm",
  "providerResultId": "node/979768000",
  "name": "Rockland Tattoos",
  "category": "tattoo",
  "latitude": 51.4460877,
  "longitude": 7.3718675,
  "address": null,
  "city": null,
  "postalCode": null,
  "websiteUrl": "https://www.rocklandtattoos.com/",
  "socialUrl": "https://instagram.com/guennarockland",
  "phone": "+49 2302 2825970",
  "email": "rocklandtattoos@googlemail.com",
  "sourceUrl": "https://www.openstreetmap.org/node/979768000"
 },
 {
  "provider": "osm",
  "providerResultId": "node/984679532",
  "name": "Maggys Tattoo Store",
  "category": "tattoo",
  "latitude": 49.468632,
  "longitude": 7.1676367,
  "address": null,
  "city": null,
  "postalCode": null,
  "websiteUrl": null,
  "socialUrl": null,
  "phone": null,
  "email": null,
  "sourceUrl": "https://www.openstreetmap.org/node/984679532"
 },
 {
  "provider": "osm",
  "providerResultId": "node/987450941",
  "name": "WIRD.CRUSH.INK",
  "category": "tattoo",
  "latitude": 51.0382209,
  "longitude": 13.6998199,
  "address": "Clara-Zetkin-Straße 6",
  "city": "Dresden",
  "postalCode": "01159",
  "websiteUrl": null,
  "socialUrl": null,
  "phone": null,
  "email": null,
  "sourceUrl": "https://www.openstreetmap.org/node/987450941"
 },
 {
  "provider": "osm",
  "providerResultId": "node/990000678",
  "name": "Tattoo und Piercing",
  "category": "tattoo",
  "latitude": 52.3654581,
  "longitude": 9.7471206,
  "address": null,
  "city": null,
  "postalCode": null,
  "websiteUrl": "https://hannover-tattoos.de/",
  "socialUrl": null,
  "phone": null,
  "email": null,
  "sourceUrl": "https://www.openstreetmap.org/node/990000678"
 },
 {
  "provider": "osm",
  "providerResultId": "node/999846721",
  "name": "Stage of Art Tattoo",
  "category": "tattoo",
  "latitude": 52.0371025,
  "longitude": 8.4849821,
  "address": "Wertherstraße 264",
  "city": "Bielefeld",
  "postalCode": "33619",
  "websiteUrl": "https://stage-of-art.de",
  "socialUrl": null,
  "phone": null,
  "email": null,
  "sourceUrl": "https://www.openstreetmap.org/node/999846721"
 },
 {
  "provider": "osm",
  "providerResultId": "node/1004463429",
  "name": "Prime Ink Tattoo",
  "category": "tattoo",
  "latitude": 51.9040305,
  "longitude": 7.6446692,
  "address": "Marktallee 46a",
  "city": "Münster",
  "postalCode": "48165",
  "websiteUrl": "https://prime-ink-muenster.de",
  "socialUrl": null,
  "phone": null,
  "email": "info@prime-ink-muenster.de",
  "sourceUrl": "https://www.openstreetmap.org/node/1004463429"
 },
 {
  "provider": "osm",
  "providerResultId": "node/1011600266",
  "name": "Hautfabrik Tattoo and Piercing by Tony",
  "category": "tattoo",
  "latitude": 49.9739335,
  "longitude": 8.8299622,
  "address": "Dieburger Straße 66",
  "city": "Rödermark",
  "postalCode": "63322",
  "websiteUrl": "https://tattoo-bytony.de",
  "socialUrl": null,
  "phone": "+49 6074 310345",
  "email": null,
  "sourceUrl": "https://www.openstreetmap.org/node/1011600266"
 },
 {
  "provider": "osm",
  "providerResultId": "node/1012279609",
  "name": "Tattoo Hard Work Shop",
  "category": "tattoo",
  "latitude": 52.1350867,
  "longitude": 11.6165944,
  "address": null,
  "city": null,
  "postalCode": null,
  "websiteUrl": "http://www.hardworkshop.de",
  "socialUrl": null,
  "phone": null,
  "email": null,
  "sourceUrl": "https://www.openstreetmap.org/node/1012279609"
 },
 {
  "provider": "osm",
  "providerResultId": "node/1012584712",
  "name": "Osti`s Tattoowiererei",
  "category": "tattoo",
  "latitude": 47.7047062,
  "longitude": 10.3227981,
  "address": null,
  "city": null,
  "postalCode": null,
  "websiteUrl": "https://www.ostis-tattoowiererei.de/",
  "socialUrl": null,
  "phone": null,
  "email": null,
  "sourceUrl": "https://www.openstreetmap.org/node/1012584712"
 },
 {
  "provider": "osm",
  "providerResultId": "node/1014438764",
  "name": "Bubblegum Art Tattoo",
  "category": "tattoo",
  "latitude": 53.5588671,
  "longitude": 9.9663148,
  "address": null,
  "city": null,
  "postalCode": null,
  "websiteUrl": "https://bubblegumart.de/",
  "socialUrl": null,
  "phone": null,
  "email": null,
  "sourceUrl": "https://www.openstreetmap.org/node/1014438764"
 },
 {
  "provider": "osm",
  "providerResultId": "node/1060037077",
  "name": "Patiki Tatau",
  "category": "tattoo",
  "latitude": 47.6686857,
  "longitude": 9.4751937,
  "address": "Faberstraße 5",
  "city": "Friedrichshafen",
  "postalCode": "88045",
  "websiteUrl": "http://www.patiki-tattoo.de/",
  "socialUrl": null,
  "phone": "+49 176 65098400",
  "email": null,
  "sourceUrl": "https://www.openstreetmap.org/node/1060037077"
 },
 {
  "provider": "osm",
  "providerResultId": "node/1073668040",
  "name": "Alexanders Tattoo Garn",
  "category": "tattoo",
  "latitude": 50.9950127,
  "longitude": 11.0254637,
  "address": null,
  "city": null,
  "postalCode": null,
  "websiteUrl": null,
  "socialUrl": null,
  "phone": null,
  "email": null,
  "sourceUrl": "https://www.openstreetmap.org/node/1073668040"
 },
 {
  "provider": "osm",
  "providerResultId": "node/1092777191",
  "name": "Sibling Stoodios",
  "category": "tattoo",
  "latitude": 54.0904387,
  "longitude": 12.116688,
  "address": "Doberaner Straße 38",
  "city": "Rostock",
  "postalCode": "18057",
  "websiteUrl": null,
  "socialUrl": null,
  "phone": null,
  "email": null,
  "sourceUrl": "https://www.openstreetmap.org/node/1092777191"
 },
 {
  "provider": "osm",
  "providerResultId": "node/1095142730",
  "name": "Youngstar Tattoo",
  "category": "tattoo",
  "latitude": 53.1094877,
  "longitude": 9.4049788,
  "address": null,
  "city": null,
  "postalCode": null,
  "websiteUrl": null,
  "socialUrl": null,
  "phone": null,
  "email": null,
  "sourceUrl": "https://www.openstreetmap.org/node/1095142730"
 },
 {
  "provider": "osm",
  "providerResultId": "node/1106632744",
  "name": "Mama Quilla",
  "category": "tattoo",
  "latitude": 51.3404464,
  "longitude": 12.3252319,
  "address": "Georg-Schwarz-Straße 37",
  "city": "Leipzig",
  "postalCode": "04177",
  "websiteUrl": "https://tattoo-mamaquilla.de/",
  "socialUrl": null,
  "phone": "+49 176 59912027",
  "email": "info@tattoo-mamaquilla.de",
  "sourceUrl": "https://www.openstreetmap.org/node/1106632744"
 },
 {
  "provider": "osm",
  "providerResultId": "node/1115932954",
  "name": "Bella Tatoo",
  "category": "tattoo",
  "latitude": 52.1295976,
  "longitude": 11.6049465,
  "address": null,
  "city": null,
  "postalCode": null,
  "websiteUrl": "https://bella-tattoo.de",
  "socialUrl": "https://instagram.com/bella.tattoo.de",
  "phone": "+49 391 40066888",
  "email": "info@bella-tattoo.de",
  "sourceUrl": "https://www.openstreetmap.org/node/1115932954"
 },
 {
  "provider": "osm",
  "providerResultId": "node/1117109475",
  "name": "Tattoos By Mike",
  "category": "tattoo",
  "latitude": 49.1911012,
  "longitude": 8.2824392,
  "address": "Hauptstraße 122",
  "city": null,
  "postalCode": "76756",
  "websiteUrl": null,
  "socialUrl": null,
  "phone": null,
  "email": null,
  "sourceUrl": "https://www.openstreetmap.org/node/1117109475"
 },
 {
  "provider": "osm",
  "providerResultId": "node/1117816108",
  "name": "Unkraut",
  "category": "tattoo",
  "latitude": 51.3078308,
  "longitude": 12.3735033,
  "address": null,
  "city": null,
  "postalCode": null,
  "websiteUrl": null,
  "socialUrl": null,
  "phone": null,
  "email": null,
  "sourceUrl": "https://www.openstreetmap.org/node/1117816108"
 },
 {
  "provider": "osm",
  "providerResultId": "node/1137593448",
  "name": "Autark Tattoo & Piercing",
  "category": "tattoo",
  "latitude": 52.5193211,
  "longitude": 13.299166,
  "address": "Spandauer Damm 1",
  "city": "Berlin",
  "postalCode": "14059",
  "websiteUrl": null,
  "socialUrl": null,
  "phone": null,
  "email": null,
  "sourceUrl": "https://www.openstreetmap.org/node/1137593448"
 },
 {
  "provider": "osm",
  "providerResultId": "node/1137673478",
  "name": "Donner Tattoo",
  "category": "tattoo",
  "latitude": 53.4910041,
  "longitude": 8.4699295,
  "address": null,
  "city": null,
  "postalCode": null,
  "websiteUrl": null,
  "socialUrl": "https://www.instagram.com/donnertattoo",
  "phone": null,
  "email": null,
  "sourceUrl": "https://www.openstreetmap.org/node/1137673478"
 },
 {
  "provider": "osm",
  "providerResultId": "node/1139653007",
  "name": "Bunte Tinte Tattoo",
  "category": "tattoo",
  "latitude": 51.0538735,
  "longitude": 13.6903619,
  "address": "Werkstättenstraße 2",
  "city": "Dresden",
  "postalCode": "01157",
  "websiteUrl": "https://www.bunte-tinte-tattoo.de/",
  "socialUrl": null,
  "phone": "+49 172 9711437",
  "email": null,
  "sourceUrl": "https://www.openstreetmap.org/node/1139653007"
 },
 {
  "provider": "osm",
  "providerResultId": "node/1179200029",
  "name": "Black Acid",
  "category": "tattoo",
  "latitude": 50.9481933,
  "longitude": 6.9514078,
  "address": null,
  "city": null,
  "postalCode": null,
  "websiteUrl": null,
  "socialUrl": null,
  "phone": null,
  "email": null,
  "sourceUrl": "https://www.openstreetmap.org/node/1179200029"
 },
 {
  "provider": "osm",
  "providerResultId": "node/1181413375",
  "name": "Susi's Piercing",
  "category": "tattoo",
  "latitude": 47.6317971,
  "longitude": 8.2676021,
  "address": "Badstraße 4",
  "city": "Waldshut-Tiengen",
  "postalCode": "79761",
  "websiteUrl": null,
  "socialUrl": null,
  "phone": "+49 7741 807258",
  "email": null,
  "sourceUrl": "https://www.openstreetmap.org/node/1181413375"
 },
 {
  "provider": "osm",
  "providerResultId": "node/1181625796",
  "name": "Für Immer",
  "category": "tattoo",
  "latitude": 52.5081795,
  "longitude": 13.453883,
  "address": "Revaler Straße 11",
  "city": "Berlin",
  "postalCode": "10245",
  "websiteUrl": "https://www.fuerimmertattoo.de/",
  "socialUrl": null,
  "phone": null,
  "email": null,
  "sourceUrl": "https://www.openstreetmap.org/node/1181625796"
 },
 {
  "provider": "osm",
  "providerResultId": "node/1185957148",
  "name": "inkedbylelli",
  "category": "tattoo",
  "latitude": 52.517814,
  "longitude": 13.3009276,
  "address": "Lohmeyerstraße 2",
  "city": "Berlin",
  "postalCode": "10587",
  "websiteUrl": "https://inkedbylelli.com",
  "socialUrl": null,
  "phone": null,
  "email": null,
  "sourceUrl": "https://www.openstreetmap.org/node/1185957148"
 },
 {
  "provider": "osm",
  "providerResultId": "node/1194838886",
  "name": "Tattoo- und Piercingstudio Stichling",
  "category": "tattoo",
  "latitude": 51.2162832,
  "longitude": 12.324991,
  "address": "Pegauer Straße 18",
  "city": "Zwenkau",
  "postalCode": "04442",
  "websiteUrl": "http://stichling-tattoo.de",
  "socialUrl": null,
  "phone": "+49 34203 249489",
  "email": "info@stichling-tattoo.de",
  "sourceUrl": "https://www.openstreetmap.org/node/1194838886"
 },
 {
  "provider": "osm",
  "providerResultId": "node/1197211099",
  "name": "Mike's Tattoostudio",
  "category": "tattoo",
  "latitude": 52.7306339,
  "longitude": 10.6052795,
  "address": null,
  "city": null,
  "postalCode": null,
  "websiteUrl": null,
  "socialUrl": null,
  "phone": null,
  "email": null,
  "sourceUrl": "https://www.openstreetmap.org/node/1197211099"
 },
 {
  "provider": "osm",
  "providerResultId": "node/1198944380",
  "name": "Elektrische Tätowierungen",
  "category": "tattoo",
  "latitude": 50.961933,
  "longitude": 7.0057999,
  "address": "Genovevastraße 4",
  "city": null,
  "postalCode": "51065",
  "websiteUrl": null,
  "socialUrl": null,
  "phone": null,
  "email": null,
  "sourceUrl": "https://www.openstreetmap.org/node/1198944380"
 },
 {
  "provider": "osm",
  "providerResultId": "node/1203766862",
  "name": "Tatouage Chatte Noire",
  "category": "tattoo",
  "latitude": 49.5966711,
  "longitude": 11.0152173,
  "address": "Luitpoldstraße 17",
  "city": "Erlangen",
  "postalCode": "91054",
  "websiteUrl": "http://www.blackcat-studio.de/",
  "socialUrl": null,
  "phone": "+49 9131 9264088",
  "email": null,
  "sourceUrl": "https://www.openstreetmap.org/node/1203766862"
 },
 {
  "provider": "osm",
  "providerResultId": "node/1208652763",
  "name": "Balco Parloir",
  "category": "tattoo",
  "latitude": 50.7712089,
  "longitude": 6.0760882,
  "address": "Jakobstraße 129-133",
  "city": "Aachen",
  "postalCode": "52064",
  "websiteUrl": null,
  "socialUrl": null,
  "phone": null,
  "email": null,
  "sourceUrl": "https://www.openstreetmap.org/node/1208652763"
 },
 {
  "provider": "osm",
  "providerResultId": "node/1212428853",
  "name": "Wild & Care",
  "category": "tattoo",
  "latitude": 49.5993456,
  "longitude": 11.003085,
  "address": "Hauptstraße 53",
  "city": "Erlangen",
  "postalCode": "91054",
  "websiteUrl": "http://www.wild-n-care.com/about_de.html",
  "socialUrl": null,
  "phone": "+49 9131 209050",
  "email": null,
  "sourceUrl": "https://www.openstreetmap.org/node/1212428853"
 },
 {
  "provider": "osm",
  "providerResultId": "node/1227210952",
  "name": "Tattoo Art",
  "category": "tattoo",
  "latitude": 49.1389467,
  "longitude": 9.2270151,
  "address": null,
  "city": null,
  "postalCode": null,
  "websiteUrl": null,
  "socialUrl": null,
  "phone": null,
  "email": null,
  "sourceUrl": "https://www.openstreetmap.org/node/1227210952"
 },
 {
  "provider": "osm",
  "providerResultId": "node/1228430726",
  "name": "Bloody Tears",
  "category": "tattoo",
  "latitude": 50.7714698,
  "longitude": 6.0958268,
  "address": null,
  "city": null,
  "postalCode": null,
  "websiteUrl": null,
  "socialUrl": null,
  "phone": null,
  "email": null,
  "sourceUrl": "https://www.openstreetmap.org/node/1228430726"
 },
 {
  "provider": "osm",
  "providerResultId": "node/1239572110",
  "name": "Tattoo Piercing",
  "category": "tattoo",
  "latitude": 53.8643358,
  "longitude": 10.6872404,
  "address": null,
  "city": null,
  "postalCode": null,
  "websiteUrl": null,
  "socialUrl": null,
  "phone": null,
  "email": null,
  "sourceUrl": "https://www.openstreetmap.org/node/1239572110"
 },
 {
  "provider": "osm",
  "providerResultId": "node/1256413231",
  "name": "Eine Liebe",
  "category": "tattoo",
  "latitude": 51.4883734,
  "longitude": 7.2141349,
  "address": "Herner Straße 42",
  "city": "Bochum",
  "postalCode": "44787",
  "websiteUrl": null,
  "socialUrl": null,
  "phone": null,
  "email": null,
  "sourceUrl": "https://www.openstreetmap.org/node/1256413231"
 },
 {
  "provider": "osm",
  "providerResultId": "node/1257806509",
  "name": "Viva la ink",
  "category": "tattoo",
  "latitude": 50.5886677,
  "longitude": 7.5311055,
  "address": "Rheinstraße 35",
  "city": "Horhausen (Westerwald)",
  "postalCode": "56593",
  "websiteUrl": "https://viva-la-ink.de.tl",
  "socialUrl": null,
  "phone": null,
  "email": null,
  "sourceUrl": "https://www.openstreetmap.org/node/1257806509"
 },
 {
  "provider": "osm",
  "providerResultId": "node/1268963252",
  "name": "Usee Tattoo",
  "category": "tattoo",
  "latitude": 52.5069245,
  "longitude": 13.2918963,
  "address": "Neue Kantstraße 6",
  "city": null,
  "postalCode": null,
  "websiteUrl": "https://www.useetattoo.de",
  "socialUrl": null,
  "phone": "+49 30 62970245",
  "email": "hello@useetattoo.de",
  "sourceUrl": "https://www.openstreetmap.org/node/1268963252"
 },
 {
  "provider": "osm",
  "providerResultId": "node/1280210544",
  "name": "Inkstylez Tattoo",
  "category": "tattoo",
  "latitude": 53.578918,
  "longitude": 10.0450436,
  "address": "Dehnhaide 44",
  "city": "Hamburg",
  "postalCode": "22081",
  "websiteUrl": null,
  "socialUrl": null,
  "phone": null,
  "email": null,
  "sourceUrl": "https://www.openstreetmap.org/node/1280210544"
 },
 {
  "provider": "osm",
  "providerResultId": "node/1286580329",
  "name": "Five Five Tattoos",
  "category": "tattoo",
  "latitude": 51.9561004,
  "longitude": 7.6434112,
  "address": null,
  "city": null,
  "postalCode": "48155",
  "websiteUrl": "https://www.buttons-tattoos.de/",
  "socialUrl": "https://instagram.com/fivefivetattoos",
  "phone": null,
  "email": null,
  "sourceUrl": "https://www.openstreetmap.org/node/1286580329"
 },
 {
  "provider": "osm",
  "providerResultId": "node/1288697453",
  "name": "KN Tattoo + Piercing",
  "category": "tattoo",
  "latitude": 51.9239633,
  "longitude": 7.573743,
  "address": "Heroldstraße 11",
  "city": "Münster",
  "postalCode": "48163",
  "websiteUrl": null,
  "socialUrl": null,
  "phone": "+49 251 712418",
  "email": null,
  "sourceUrl": "https://www.openstreetmap.org/node/1288697453"
 },
 {
  "provider": "osm",
  "providerResultId": "node/1319446075",
  "name": "Glorious Art",
  "category": "tattoo",
  "latitude": 50.736691,
  "longitude": 7.1000665,
  "address": null,
  "city": null,
  "postalCode": null,
  "websiteUrl": "https://glorious-art.de/",
  "socialUrl": null,
  "phone": null,
  "email": null,
  "sourceUrl": "https://www.openstreetmap.org/node/1319446075"
 },
 {
  "provider": "osm",
  "providerResultId": "node/1321615345",
  "name": "German Ink",
  "category": "tattoo",
  "latitude": 48.8804121,
  "longitude": 12.5635155,
  "address": "Zur Wieskapelle 4",
  "city": "Straubing",
  "postalCode": "94315",
  "websiteUrl": "https://www.german-ink.com/",
  "socialUrl": null,
  "phone": null,
  "email": null,
  "sourceUrl": "https://www.openstreetmap.org/node/1321615345"
 },
 {
  "provider": "osm",
  "providerResultId": "node/1324376079",
  "name": "INKarnation",
  "category": "tattoo",
  "latitude": 51.1398743,
  "longitude": 7.2147502,
  "address": "Kölner Straße 24",
  "city": "Wermelskirchen",
  "postalCode": "42929",
  "websiteUrl": null,
  "socialUrl": null,
  "phone": null,
  "email": null,
  "sourceUrl": "https://www.openstreetmap.org/node/1324376079"
 },
 {
  "provider": "osm",
  "providerResultId": "node/1361551209",
  "name": "Tattoo Cat",
  "category": "tattoo",
  "latitude": 51.2727907,
  "longitude": 9.3810645,
  "address": "Korbacher Straße 17b",
  "city": "Schauenburg",
  "postalCode": "34270",
  "websiteUrl": "https://tattoo-cat.de/",
  "socialUrl": null,
  "phone": "+49 5601 5699",
  "email": null,
  "sourceUrl": "https://www.openstreetmap.org/node/1361551209"
 },
 {
  "provider": "osm",
  "providerResultId": "node/1372723457",
  "name": "Right Decision Tattoo",
  "category": "tattoo",
  "latitude": 49.2337284,
  "longitude": 6.9964844,
  "address": null,
  "city": null,
  "postalCode": null,
  "websiteUrl": null,
  "socialUrl": null,
  "phone": null,
  "email": null,
  "sourceUrl": "https://www.openstreetmap.org/node/1372723457"
 },
 {
  "provider": "osm",
  "providerResultId": "node/1372821827",
  "name": "Cosmic Ink",
  "category": "tattoo",
  "latitude": 49.232099,
  "longitude": 6.9962908,
  "address": "Kronenstraße 1C",
  "city": "Saarbrücken",
  "postalCode": "66111",
  "websiteUrl": null,
  "socialUrl": null,
  "phone": null,
  "email": null,
  "sourceUrl": "https://www.openstreetmap.org/node/1372821827"
 },
 {
  "provider": "osm",
  "providerResultId": "node/1372821843",
  "name": "Will Body Art",
  "category": "tattoo",
  "latitude": 49.2324965,
  "longitude": 6.9952879,
  "address": "Fröschengasse 3",
  "city": "Saarbrücken",
  "postalCode": "66111",
  "websiteUrl": "http://www.myspace.com/willtattoos",
  "socialUrl": null,
  "phone": "+49 175 8901416",
  "email": null,
  "sourceUrl": "https://www.openstreetmap.org/node/1372821843"
 },
 {
  "provider": "osm",
  "providerResultId": "node/1373067141",
  "name": "Flatrate Tattoo",
  "category": "tattoo",
  "latitude": 50.6385505,
  "longitude": 9.3987472,
  "address": "Bahnhofstraße 37",
  "city": "Lauterbach",
  "postalCode": "36341",
  "websiteUrl": null,
  "socialUrl": null,
  "phone": "+49 174 8206496",
  "email": "flatratetattoo@gmail.com",
  "sourceUrl": "https://www.openstreetmap.org/node/1373067141"
 },
 {
  "provider": "osm",
  "providerResultId": "node/1376773904",
  "name": "Frei Ink",
  "category": "tattoo",
  "latitude": 48.4005835,
  "longitude": 11.7484245,
  "address": "Heiliggeistgasse 20",
  "city": "Freising",
  "postalCode": "85354",
  "websiteUrl": "https://frei-ink-tattoo.de",
  "socialUrl": null,
  "phone": "+49 15156556921",
  "email": null,
  "sourceUrl": "https://www.openstreetmap.org/node/1376773904"
 },
 {
  "provider": "osm",
  "providerResultId": "node/1376883589",
  "name": "AK47",
  "category": "tattoo",
  "latitude": 49.2366128,
  "longitude": 6.9967391,
  "address": "Dudweilerstraße 33",
  "city": "Saarbrücken",
  "postalCode": "66111",
  "websiteUrl": "http://www.ak47-piercing.de/",
  "socialUrl": null,
  "phone": "+49 681 9388138",
  "email": null,
  "sourceUrl": "https://www.openstreetmap.org/node/1376883589"
 },
 {
  "provider": "osm",
  "providerResultId": "node/1383505834",
  "name": "Hautschmiede",
  "category": "tattoo",
  "latitude": 52.130374,
  "longitude": 11.6109672,
  "address": "Große Diesdorfer Straße 27",
  "city": "Magdeburg",
  "postalCode": "39108",
  "websiteUrl": null,
  "socialUrl": null,
  "phone": null,
  "email": null,
  "sourceUrl": "https://www.openstreetmap.org/node/1383505834"
 },
 {
  "provider": "osm",
  "providerResultId": "node/1388684253",
  "name": "Body-Planet",
  "category": "tattoo",
  "latitude": 48.125046,
  "longitude": 11.3664888,
  "address": "Otto-Wagner-Straße 5",
  "city": "Germering",
  "postalCode": "82110",
  "websiteUrl": "http://www.tattoo-piercings.com/",
  "socialUrl": null,
  "phone": null,
  "email": null,
  "sourceUrl": "https://www.openstreetmap.org/node/1388684253"
 },
 {
  "provider": "osm",
  "providerResultId": "node/1394089501",
  "name": "Inkredible",
  "category": "tattoo",
  "latitude": 50.6090624,
  "longitude": 10.6922935,
  "address": null,
  "city": null,
  "postalCode": null,
  "websiteUrl": null,
  "socialUrl": null,
  "phone": null,
  "email": null,
  "sourceUrl": "https://www.openstreetmap.org/node/1394089501"
 },
 {
  "provider": "osm",
  "providerResultId": "node/1396621263",
  "name": "Hellcats",
  "category": "tattoo",
  "latitude": 51.9522276,
  "longitude": 7.6309117,
  "address": "Graelstraße 45",
  "city": "Münster",
  "postalCode": "48153",
  "websiteUrl": null,
  "socialUrl": "https://www.instagram.com/hellcats_ms/",
  "phone": null,
  "email": null,
  "sourceUrl": "https://www.openstreetmap.org/node/1396621263"
 },
 {
  "provider": "osm",
  "providerResultId": "node/1397164482",
  "name": "Tattoo Place",
  "category": "tattoo",
  "latitude": 51.2010202,
  "longitude": 6.8411699,
  "address": "Auf'm Großenfeld 7",
  "city": "Düsseldorf",
  "postalCode": "40229",
  "websiteUrl": null,
  "socialUrl": null,
  "phone": "+49 176 25575244",
  "email": null,
  "sourceUrl": "https://www.openstreetmap.org/node/1397164482"
 },
 {
  "provider": "osm",
  "providerResultId": "node/1399791943",
  "name": "Benno's Tattoo Studio",
  "category": "tattoo",
  "latitude": 54.3072101,
  "longitude": 9.6037772,
  "address": "Rendsburger Straße 39",
  "city": "Fockbek",
  "postalCode": "24787",
  "websiteUrl": null,
  "socialUrl": null,
  "phone": null,
  "email": null,
  "sourceUrl": "https://www.openstreetmap.org/node/1399791943"
 },
 {
  "provider": "osm",
  "providerResultId": "node/1399979959",
  "name": "Tattoo-Point Kiel",
  "category": "tattoo",
  "latitude": 54.3218231,
  "longitude": 10.1418671,
  "address": "Wall 48",
  "city": "Kiel",
  "postalCode": "24103",
  "websiteUrl": "http://www.tattoo-point-kiel.de",
  "socialUrl": null,
  "phone": "+4943192594",
  "email": null,
  "sourceUrl": "https://www.openstreetmap.org/node/1399979959"
 },
 {
  "provider": "osm",
  "providerResultId": "node/1400932885",
  "name": "Imaginarium Custom Tattoos",
  "category": "tattoo",
  "latitude": 48.1239253,
  "longitude": 11.5657041,
  "address": null,
  "city": null,
  "postalCode": null,
  "websiteUrl": null,
  "socialUrl": null,
  "phone": null,
  "email": null,
  "sourceUrl": "https://www.openstreetmap.org/node/1400932885"
 },
 {
  "provider": "osm",
  "providerResultId": "node/1411519032",
  "name": "Hautschmiede Tattoo",
  "category": "tattoo",
  "latitude": 52.1317072,
  "longitude": 11.6108794,
  "address": "Steinigstraße 9",
  "city": "Magdeburg",
  "postalCode": "39108",
  "websiteUrl": "https://hautschmie.de",
  "socialUrl": null,
  "phone": "+49 173 6892298",
  "email": "info@hautschmie.de",
  "sourceUrl": "https://www.openstreetmap.org/node/1411519032"
 },
 {
  "provider": "osm",
  "providerResultId": "node/1418102690",
  "name": "TB-Tattoo",
  "category": "tattoo",
  "latitude": 53.922392,
  "longitude": 9.5191998,
  "address": null,
  "city": null,
  "postalCode": null,
  "websiteUrl": "https://www.tb-tattoo.com/",
  "socialUrl": null,
  "phone": "+49 4821 4307120",
  "email": "info@tb-tattoo.com",
  "sourceUrl": "https://www.openstreetmap.org/node/1418102690"
 },
 {
  "provider": "osm",
  "providerResultId": "node/1422587813",
  "name": "De L'Art Studio",
  "category": "tattoo",
  "latitude": 48.8050686,
  "longitude": 9.1088051,
  "address": "Waldhornweg 22",
  "city": null,
  "postalCode": null,
  "websiteUrl": null,
  "socialUrl": null,
  "phone": null,
  "email": null,
  "sourceUrl": "https://www.openstreetmap.org/node/1422587813"
 },
 {
  "provider": "osm",
  "providerResultId": "node/1426623377",
  "name": "Instant Pain",
  "category": "tattoo",
  "latitude": 48.8151097,
  "longitude": 9.111194,
  "address": null,
  "city": null,
  "postalCode": null,
  "websiteUrl": null,
  "socialUrl": null,
  "phone": null,
  "email": null,
  "sourceUrl": "https://www.openstreetmap.org/node/1426623377"
 },
 {
  "provider": "osm",
  "providerResultId": "node/1433270349",
  "name": "Beauty Art Tattoo",
  "category": "tattoo",
  "latitude": 51.0600619,
  "longitude": 7.0055628,
  "address": "Wilhelmstraße 15",
  "city": "Leverkusen",
  "postalCode": "51379",
  "websiteUrl": null,
  "socialUrl": null,
  "phone": null,
  "email": null,
  "sourceUrl": "https://www.openstreetmap.org/node/1433270349"
 },
 {
  "provider": "osm",
  "providerResultId": "node/1461163195",
  "name": "Neptune's Maid",
  "category": "tattoo",
  "latitude": 53.9026149,
  "longitude": 10.7509356,
  "address": null,
  "city": null,
  "postalCode": null,
  "websiteUrl": "http://neptunesmaid.de/",
  "socialUrl": null,
  "phone": null,
  "email": null,
  "sourceUrl": "https://www.openstreetmap.org/node/1461163195"
 },
 {
  "provider": "osm",
  "providerResultId": "node/1470896786",
  "name": "Lakimii",
  "category": "tattoo",
  "latitude": 50.9361763,
  "longitude": 6.9426014,
  "address": "Benesisstraße 8-12",
  "city": null,
  "postalCode": null,
  "websiteUrl": "https://lakimii.com/koeln/",
  "socialUrl": "https://instagram.com/lakimii_koeln",
  "phone": "+49 176 24557898",
  "email": "koeln@lakimii.com",
  "sourceUrl": "https://www.openstreetmap.org/node/1470896786"
 },
 {
  "provider": "osm",
  "providerResultId": "node/1478901294",
  "name": "Imaginarium",
  "category": "tattoo",
  "latitude": 48.133698,
  "longitude": 11.575843,
  "address": "Utzschneiderstraße 12",
  "city": "München",
  "postalCode": "80469",
  "websiteUrl": null,
  "socialUrl": "https://www.instagram.com/imaginarium_custom_tattoos",
  "phone": "+49 89 307 075 07",
  "email": null,
  "sourceUrl": "https://www.openstreetmap.org/node/1478901294"
 },
 {
  "provider": "osm",
  "providerResultId": "node/1479009851",
  "name": "Omen",
  "category": "tattoo",
  "latitude": 52.5175144,
  "longitude": 13.4157048,
  "address": "Dircksenstraße 88",
  "city": "Berlin",
  "postalCode": "10178",
  "websiteUrl": "https://www.omenberlin.de",
  "socialUrl": null,
  "phone": null,
  "email": null,
  "sourceUrl": "https://www.openstreetmap.org/node/1479009851"
 },
 {
  "provider": "osm",
  "providerResultId": "node/1493465856",
  "name": "Mona Lima",
  "category": "tattoo",
  "latitude": 48.8984937,
  "longitude": 9.1880285,
  "address": null,
  "city": null,
  "postalCode": null,
  "websiteUrl": null,
  "socialUrl": null,
  "phone": null,
  "email": null,
  "sourceUrl": "https://www.openstreetmap.org/node/1493465856"
 },
 {
  "provider": "osm",
  "providerResultId": "node/1524783343",
  "name": "Redpoint",
  "category": "tattoo",
  "latitude": 49.9895984,
  "longitude": 8.4150254,
  "address": "Haßlocher Straße 28",
  "city": "Rüsselsheim am Main",
  "postalCode": "65428",
  "websiteUrl": null,
  "socialUrl": null,
  "phone": null,
  "email": null,
  "sourceUrl": "https://www.openstreetmap.org/node/1524783343"
 },
 {
  "provider": "osm",
  "providerResultId": "node/1525332636",
  "name": "Reinstich",
  "category": "tattoo",
  "latitude": 49.4630866,
  "longitude": 11.0717817,
  "address": "Bucher Straße 48a",
  "city": "Nürnberg",
  "postalCode": "90408",
  "websiteUrl": "https://www.reinsti.ch/",
  "socialUrl": null,
  "phone": null,
  "email": null,
  "sourceUrl": "https://www.openstreetmap.org/node/1525332636"
 },
 {
  "provider": "osm",
  "providerResultId": "node/1534009734",
  "name": "Tattoo Devil Berlin",
  "category": "tattoo",
  "latitude": 52.4628737,
  "longitude": 13.3211295,
  "address": "Schildhornstraße 9",
  "city": "Berlin",
  "postalCode": "12163",
  "websiteUrl": "http://www.tattoo-devil.de/",
  "socialUrl": null,
  "phone": null,
  "email": null,
  "sourceUrl": "https://www.openstreetmap.org/node/1534009734"
 },
 {
  "provider": "osm",
  "providerResultId": "node/1536001672",
  "name": "Independence",
  "category": "tattoo",
  "latitude": 49.4383205,
  "longitude": 11.067325,
  "address": "Gibitzenhofstraße 61",
  "city": "Nürnberg",
  "postalCode": "90443",
  "websiteUrl": null,
  "socialUrl": null,
  "phone": null,
  "email": null,
  "sourceUrl": "https://www.openstreetmap.org/node/1536001672"
 },
 {
  "provider": "osm",
  "providerResultId": "node/1536559962",
  "name": "paint it black",
  "category": "tattoo",
  "latitude": 53.7284789,
  "longitude": 10.2556056,
  "address": null,
  "city": null,
  "postalCode": null,
  "websiteUrl": null,
  "socialUrl": null,
  "phone": null,
  "email": null,
  "sourceUrl": "https://www.openstreetmap.org/node/1536559962"
 },
 {
  "provider": "osm",
  "providerResultId": "node/1540323190",
  "name": "Alex Tattoo Art",
  "category": "tattoo",
  "latitude": 49.438187,
  "longitude": 11.0823866,
  "address": "Pillenreuther Straße 71",
  "city": "Nürnberg",
  "postalCode": "90459",
  "websiteUrl": null,
  "socialUrl": null,
  "phone": null,
  "email": null,
  "sourceUrl": "https://www.openstreetmap.org/node/1540323190"
 },
 {
  "provider": "osm",
  "providerResultId": "node/1540524833",
  "name": "Bloody Larry",
  "category": "tattoo",
  "latitude": 49.4362526,
  "longitude": 11.0885139,
  "address": "Schönweißstraße 4",
  "city": null,
  "postalCode": null,
  "websiteUrl": "https://www.bloodylarry.de/",
  "socialUrl": null,
  "phone": null,
  "email": null,
  "sourceUrl": "https://www.openstreetmap.org/node/1540524833"
 },
 {
  "provider": "osm",
  "providerResultId": "node/1540524873",
  "name": "Grave Tattoo",
  "category": "tattoo",
  "latitude": 49.4368739,
  "longitude": 11.091417,
  "address": "Allersberger Straße 127",
  "city": "Nürnberg",
  "postalCode": "90461",
  "websiteUrl": "https://web.archive.org/web/20181227182537/http://grave-tattoo.de/",
  "socialUrl": null,
  "phone": "+49 911 9235635",
  "email": "kontakt@grave-tattoo.de",
  "sourceUrl": "https://www.openstreetmap.org/node/1540524873"
 },
 {
  "provider": "osm",
  "providerResultId": "node/1540554421",
  "name": "Tattoo Temple",
  "category": "tattoo",
  "latitude": 49.4424291,
  "longitude": 11.0906502,
  "address": null,
  "city": null,
  "postalCode": null,
  "websiteUrl": null,
  "socialUrl": null,
  "phone": null,
  "email": null,
  "sourceUrl": "https://www.openstreetmap.org/node/1540554421"
 },
 {
  "provider": "osm",
  "providerResultId": "node/1551903213",
  "name": "Tattoozentrale",
  "category": "tattoo",
  "latitude": 51.3459455,
  "longitude": 8.2858128,
  "address": null,
  "city": null,
  "postalCode": null,
  "websiteUrl": "http://www.tattoozentrale.de/",
  "socialUrl": null,
  "phone": null,
  "email": null,
  "sourceUrl": "https://www.openstreetmap.org/node/1551903213"
 },
 {
  "provider": "osm",
  "providerResultId": "node/1573822428",
  "name": "Black Door",
  "category": "tattoo",
  "latitude": 49.4296619,
  "longitude": 11.0905185,
  "address": "Frankenstraße 170",
  "city": "Nürnberg",
  "postalCode": "90461",
  "websiteUrl": null,
  "socialUrl": null,
  "phone": "+4917682289401",
  "email": null,
  "sourceUrl": "https://www.openstreetmap.org/node/1573822428"
 },
 {
  "provider": "osm",
  "providerResultId": "node/1575423813",
  "name": "German Ink",
  "category": "tattoo",
  "latitude": 49.6730159,
  "longitude": 12.149751,
  "address": "Frauenrichter Straße 42",
  "city": "Weiden i.d.OPf.",
  "postalCode": "92637",
  "websiteUrl": "https://germaninktattooundpiercing.de/",
  "socialUrl": null,
  "phone": null,
  "email": null,
  "sourceUrl": "https://www.openstreetmap.org/node/1575423813"
 },
 {
  "provider": "osm",
  "providerResultId": "node/1578156108",
  "name": "Bavarian Bounty",
  "category": "tattoo",
  "latitude": 48.1564214,
  "longitude": 11.5618067,
  "address": "Schleißheimer Straße 71",
  "city": "München",
  "postalCode": "80797",
  "websiteUrl": "http://www.bavarianbounty.com/",
  "socialUrl": null,
  "phone": null,
  "email": null,
  "sourceUrl": "https://www.openstreetmap.org/node/1578156108"
 },
 {
  "provider": "osm",
  "providerResultId": "node/1578715751",
  "name": "HD Tattoos",
  "category": "tattoo",
  "latitude": 49.0042127,
  "longitude": 8.5227744,
  "address": "Karlsruher Straße 50",
  "city": "Pfinztal",
  "postalCode": "76327",
  "websiteUrl": "https://www.instagram.com/hd.tattoos/",
  "socialUrl": null,
  "phone": null,
  "email": null,
  "sourceUrl": "https://www.openstreetmap.org/node/1578715751"
 },
 {
  "provider": "osm",
  "providerResultId": "node/1588219158",
  "name": "Room 23 Tattoo & Art",
  "category": "tattoo",
  "latitude": 53.8619812,
  "longitude": 10.6882383,
  "address": null,
  "city": null,
  "postalCode": null,
  "websiteUrl": null,
  "socialUrl": null,
  "phone": null,
  "email": null,
  "sourceUrl": "https://www.openstreetmap.org/node/1588219158"
 },
 {
  "provider": "osm",
  "providerResultId": "node/1589788918",
  "name": "Bodyrefining",
  "category": "tattoo",
  "latitude": 49.9449858,
  "longitude": 11.566232,
  "address": "Kreuz 2",
  "city": "Bayreuth",
  "postalCode": "95445",
  "websiteUrl": null,
  "socialUrl": null,
  "phone": null,
  "email": null,
  "sourceUrl": "https://www.openstreetmap.org/node/1589788918"
 },
 {
  "provider": "osm",
  "providerResultId": "node/1589968320",
  "name": "Tattoo Assassin Ink",
  "category": "tattoo",
  "latitude": 51.0218652,
  "longitude": 13.7754784,
  "address": null,
  "city": null,
  "postalCode": null,
  "websiteUrl": null,
  "socialUrl": null,
  "phone": null,
  "email": null,
  "sourceUrl": "https://www.openstreetmap.org/node/1589968320"
 },
 {
  "provider": "osm",
  "providerResultId": "node/1591584393",
  "name": "Lebenslaenglich",
  "category": "tattoo",
  "latitude": 50.7718953,
  "longitude": 7.2934113,
  "address": null,
  "city": null,
  "postalCode": null,
  "websiteUrl": "http://www.tattoo-hennef.de",
  "socialUrl": null,
  "phone": "+49 2242 8748245",
  "email": null,
  "sourceUrl": "https://www.openstreetmap.org/node/1591584393"
 },
 {
  "provider": "osm",
  "providerResultId": "node/1593180493",
  "name": "Pirate Ink",
  "category": "tattoo",
  "latitude": 50.9602515,
  "longitude": 7.0068275,
  "address": "Merkerhofstraße 13",
  "city": "Köln",
  "postalCode": "51065",
  "websiteUrl": null,
  "socialUrl": null,
  "phone": "+49 221 29429812",
  "email": null,
  "sourceUrl": "https://www.openstreetmap.org/node/1593180493"
 },
 {
  "provider": "osm",
  "providerResultId": "node/1603463464",
  "name": "Peters Tätowierstudio",
  "category": "tattoo",
  "latitude": 49.5001792,
  "longitude": 8.4926133,
  "address": null,
  "city": null,
  "postalCode": null,
  "websiteUrl": "https://www.peters-tattoo-studio.de/",
  "socialUrl": null,
  "phone": "+49 621 377619",
  "email": null,
  "sourceUrl": "https://www.openstreetmap.org/node/1603463464"
 },
 {
  "provider": "osm",
  "providerResultId": "node/1605053468",
  "name": "NeJo",
  "category": "tattoo",
  "latitude": 49.7562613,
  "longitude": 11.5434564,
  "address": null,
  "city": null,
  "postalCode": null,
  "websiteUrl": null,
  "socialUrl": null,
  "phone": null,
  "email": null,
  "sourceUrl": "https://www.openstreetmap.org/node/1605053468"
 },
 {
  "provider": "osm",
  "providerResultId": "node/1605053555",
  "name": "MM Tattoo Studio Pegnitz",
  "category": "tattoo",
  "latitude": 49.7562223,
  "longitude": 11.5365844,
  "address": null,
  "city": null,
  "postalCode": null,
  "websiteUrl": "http://www.mm-tattoo.de",
  "socialUrl": null,
  "phone": null,
  "email": null,
  "sourceUrl": "https://www.openstreetmap.org/node/1605053555"
 },
 {
  "provider": "osm",
  "providerResultId": "node/1605791905",
  "name": "Skin Mission",
  "category": "tattoo",
  "latitude": 49.7566726,
  "longitude": 11.5410561,
  "address": null,
  "city": null,
  "postalCode": null,
  "websiteUrl": "www.skin-mission.de",
  "socialUrl": null,
  "phone": null,
  "email": null,
  "sourceUrl": "https://www.openstreetmap.org/node/1605791905"
 },
 {
  "provider": "osm",
  "providerResultId": "node/1610355707",
  "name": "Cuckoo Ink",
  "category": "tattoo",
  "latitude": 48.5917661,
  "longitude": 9.2214562,
  "address": "Friedhofstraße 3",
  "city": null,
  "postalCode": null,
  "websiteUrl": "https://cuckoo-ink.de/",
  "socialUrl": null,
  "phone": "+49 1578 2990618",
  "email": null,
  "sourceUrl": "https://www.openstreetmap.org/node/1610355707"
 },
 {
  "provider": "osm",
  "providerResultId": "node/1631842510",
  "name": "Art&Soul Tattoo Studio",
  "category": "tattoo",
  "latitude": 49.4874757,
  "longitude": 8.4706231,
  "address": null,
  "city": null,
  "postalCode": null,
  "websiteUrl": "https://www.artandsoul-tattoo.de/",
  "socialUrl": null,
  "phone": "+49 621 3365271",
  "email": null,
  "sourceUrl": "https://www.openstreetmap.org/node/1631842510"
 },
 {
  "provider": "osm",
  "providerResultId": "node/1633400056",
  "name": "Ostzone Tattoo Fanshop",
  "category": "tattoo",
  "latitude": 52.5067768,
  "longitude": 13.4961668,
  "address": null,
  "city": null,
  "postalCode": null,
  "websiteUrl": null,
  "socialUrl": null,
  "phone": null,
  "email": null,
  "sourceUrl": "https://www.openstreetmap.org/node/1633400056"
 },
 {
  "provider": "osm",
  "providerResultId": "node/1635304252",
  "name": "Zum Buntspecht",
  "category": "tattoo",
  "latitude": 51.3873579,
  "longitude": 7.3899468,
  "address": null,
  "city": null,
  "postalCode": null,
  "websiteUrl": "https://zumbuntspecht.de",
  "socialUrl": null,
  "phone": "+49 2335 9758400",
  "email": "tattoo@zumbuntspecht.de",
  "sourceUrl": "https://www.openstreetmap.org/node/1635304252"
 },
 {
  "provider": "osm",
  "providerResultId": "node/1644011347",
  "name": "2 Seiten",
  "category": "tattoo",
  "latitude": 50.948247,
  "longitude": 6.921923,
  "address": null,
  "city": null,
  "postalCode": null,
  "websiteUrl": null,
  "socialUrl": null,
  "phone": null,
  "email": null,
  "sourceUrl": "https://www.openstreetmap.org/node/1644011347"
 },
 {
  "provider": "osm",
  "providerResultId": "node/1663291918",
  "name": "Tattoo Handwerk",
  "category": "tattoo",
  "latitude": 51.3169398,
  "longitude": 12.3731306,
  "address": "Karl-Liebknecht-Straße 110",
  "city": null,
  "postalCode": null,
  "websiteUrl": "https://www.inkandpain.com",
  "socialUrl": null,
  "phone": null,
  "email": null,
  "sourceUrl": "https://www.openstreetmap.org/node/1663291918"
 },
 {
  "provider": "osm",
  "providerResultId": "node/1663733124",
  "name": "Zwielicht Tattoo & Piercing",
  "category": "tattoo",
  "latitude": 52.8344067,
  "longitude": 13.8226686,
  "address": "Kreuzstraße 21",
  "city": "Eberswalde",
  "postalCode": "16225",
  "websiteUrl": null,
  "socialUrl": null,
  "phone": null,
  "email": null,
  "sourceUrl": "https://www.openstreetmap.org/node/1663733124"
 },
 {
  "provider": "osm",
  "providerResultId": "node/1666647071",
  "name": "Farbhütte",
  "category": "tattoo",
  "latitude": 51.3314709,
  "longitude": 12.3724653,
  "address": null,
  "city": null,
  "postalCode": null,
  "websiteUrl": null,
  "socialUrl": null,
  "phone": null,
  "email": null,
  "sourceUrl": "https://www.openstreetmap.org/node/1666647071"
 },
 {
  "provider": "osm",
  "providerResultId": "node/1672539408",
  "name": "QTW Tattoo Studio",
  "category": "tattoo",
  "latitude": 51.791012,
  "longitude": 11.150902,
  "address": "Reichenstraße 39",
  "city": "Quedlinburg",
  "postalCode": "06484",
  "websiteUrl": "http://www.qtw-tattoo.de",
  "socialUrl": null,
  "phone": null,
  "email": null,
  "sourceUrl": "https://www.openstreetmap.org/node/1672539408"
 },
 {
  "provider": "osm",
  "providerResultId": "node/1673563354",
  "name": "Tattoo Place",
  "category": "tattoo",
  "latitude": 50.9144295,
  "longitude": 9.1847779,
  "address": null,
  "city": null,
  "postalCode": null,
  "websiteUrl": null,
  "socialUrl": null,
  "phone": "+49 6691 966621",
  "email": null,
  "sourceUrl": "https://www.openstreetmap.org/node/1673563354"
 },
 {
  "provider": "osm",
  "providerResultId": "node/1678302998",
  "name": "Golden Dye Atelier",
  "category": "tattoo",
  "latitude": 51.4375042,
  "longitude": 7.3499395,
  "address": null,
  "city": null,
  "postalCode": null,
  "websiteUrl": null,
  "socialUrl": "https://instagram.com/goldendye.atelier",
  "phone": null,
  "email": "booking.goldendyeatelier@gmail.com",
  "sourceUrl": "https://www.openstreetmap.org/node/1678302998"
 },
 {
  "provider": "osm",
  "providerResultId": "node/1691620684",
  "name": "La Boheme Tattoo",
  "category": "tattoo",
  "latitude": 51.7192395,
  "longitude": 8.7581875,
  "address": "An der Alten Synagoge 4",
  "city": "Paderborn",
  "postalCode": "33098",
  "websiteUrl": "http://www.la-bohemetattoo.de",
  "socialUrl": null,
  "phone": null,
  "email": null,
  "sourceUrl": "https://www.openstreetmap.org/node/1691620684"
 },
 {
  "provider": "osm",
  "providerResultId": "node/1694721702",
  "name": "Körperkult",
  "category": "tattoo",
  "latitude": 51.4480752,
  "longitude": 7.3293714,
  "address": null,
  "city": null,
  "postalCode": null,
  "websiteUrl": "https://www.tattoowitten.de/",
  "socialUrl": null,
  "phone": "+49 2302 9830303",
  "email": null,
  "sourceUrl": "https://www.openstreetmap.org/node/1694721702"
 },
 {
  "provider": "osm",
  "providerResultId": "node/1705731910",
  "name": "Cactus Tattoostudio",
  "category": "tattoo",
  "latitude": 48.7733437,
  "longitude": 9.1678392,
  "address": null,
  "city": null,
  "postalCode": null,
  "websiteUrl": null,
  "socialUrl": null,
  "phone": null,
  "email": null,
  "sourceUrl": "https://www.openstreetmap.org/node/1705731910"
 },
 {
  "provider": "osm",
  "providerResultId": "node/1712810329",
  "name": "Visavajara",
  "category": "tattoo",
  "latitude": 47.9916362,
  "longitude": 7.8469054,
  "address": null,
  "city": null,
  "postalCode": "79098",
  "websiteUrl": "http://visavajara.com",
  "socialUrl": null,
  "phone": "+49 761 2907717",
  "email": null,
  "sourceUrl": "https://www.openstreetmap.org/node/1712810329"
 },
 {
  "provider": "osm",
  "providerResultId": "node/1722404280",
  "name": "Josha-Z",
  "category": "tattoo",
  "latitude": 52.9740317,
  "longitude": 10.5884553,
  "address": null,
  "city": null,
  "postalCode": null,
  "websiteUrl": null,
  "socialUrl": null,
  "phone": null,
  "email": null,
  "sourceUrl": "https://www.openstreetmap.org/node/1722404280"
 },
 {
  "provider": "osm",
  "providerResultId": "node/1722937995",
  "name": "Brother Tattoo",
  "category": "tattoo",
  "latitude": 49.8463281,
  "longitude": 7.8557768,
  "address": "Mannheimer Straße 42",
  "city": "Bad Kreuznach",
  "postalCode": "55545",
  "websiteUrl": "https://www.brothertattoo.de/",
  "socialUrl": null,
  "phone": "+49 671 27070",
  "email": null,
  "sourceUrl": "https://www.openstreetmap.org/node/1722937995"
 },
 {
  "provider": "osm",
  "providerResultId": "node/1726321818",
  "name": "Stitch Ink Tattoo",
  "category": "tattoo",
  "latitude": 50.1008257,
  "longitude": 8.6878924,
  "address": null,
  "city": null,
  "postalCode": null,
  "websiteUrl": "https://www.stitch-ink.de/",
  "socialUrl": null,
  "phone": "+49 69 27272766",
  "email": null,
  "sourceUrl": "https://www.openstreetmap.org/node/1726321818"
 },
 {
  "provider": "osm",
  "providerResultId": "node/1726631908",
  "name": "INKaholic",
  "category": "tattoo",
  "latitude": 52.1223554,
  "longitude": 11.6289871,
  "address": null,
  "city": null,
  "postalCode": null,
  "websiteUrl": null,
  "socialUrl": null,
  "phone": null,
  "email": null,
  "sourceUrl": "https://www.openstreetmap.org/node/1726631908"
 },
 {
  "provider": "osm",
  "providerResultId": "node/1736999972",
  "name": "Bullet Proof Tattooing",
  "category": "tattoo",
  "latitude": 52.9868173,
  "longitude": 10.0877769,
  "address": null,
  "city": null,
  "postalCode": null,
  "websiteUrl": null,
  "socialUrl": null,
  "phone": null,
  "email": null,
  "sourceUrl": "https://www.openstreetmap.org/node/1736999972"
 },
 {
  "provider": "osm",
  "providerResultId": "node/1741102156",
  "name": "JT Ink Tattoo",
  "category": "tattoo",
  "latitude": 52.0851965,
  "longitude": 7.004796,
  "address": "Fuistingstraße 48",
  "city": "Ahaus",
  "postalCode": "48683",
  "websiteUrl": "https://www.jtink.de/",
  "socialUrl": null,
  "phone": "+4925619598882",
  "email": null,
  "sourceUrl": "https://www.openstreetmap.org/node/1741102156"
 },
 {
  "provider": "osm",
  "providerResultId": "node/1746806198",
  "name": "Tattoo Crazy Ink",
  "category": "tattoo",
  "latitude": 53.0805307,
  "longitude": 8.7741086,
  "address": "Woltmershauser Straße",
  "city": "Bremen",
  "postalCode": "28197",
  "websiteUrl": null,
  "socialUrl": null,
  "phone": null,
  "email": null,
  "sourceUrl": "https://www.openstreetmap.org/node/1746806198"
 },
 {
  "provider": "osm",
  "providerResultId": "node/1751164552",
  "name": "Bremen Art",
  "category": "tattoo",
  "latitude": 53.0656277,
  "longitude": 8.8771863,
  "address": null,
  "city": null,
  "postalCode": null,
  "websiteUrl": null,
  "socialUrl": null,
  "phone": null,
  "email": null,
  "sourceUrl": "https://www.openstreetmap.org/node/1751164552"
 },
 {
  "provider": "osm",
  "providerResultId": "node/1766506652",
  "name": "Robert's Tattoo",
  "category": "tattoo",
  "latitude": 50.1816724,
  "longitude": 8.7415541,
  "address": "Frankfurter Straße 36-38",
  "city": "Bad Vilbel",
  "postalCode": "61118",
  "websiteUrl": null,
  "socialUrl": null,
  "phone": null,
  "email": null,
  "sourceUrl": "https://www.openstreetmap.org/node/1766506652"
 },
 {
  "provider": "osm",
  "providerResultId": "node/1784085827",
  "name": "Bütof Tattoo",
  "category": "tattoo",
  "latitude": 51.3602008,
  "longitude": 11.9920922,
  "address": null,
  "city": null,
  "postalCode": null,
  "websiteUrl": "https://ralf-buetof-art.de/",
  "socialUrl": null,
  "phone": "+493461200465",
  "email": null,
  "sourceUrl": "https://www.openstreetmap.org/node/1784085827"
 },
 {
  "provider": "osm",
  "providerResultId": "node/1795698966",
  "name": "Visavajara",
  "category": "tattoo",
  "latitude": 49.4498932,
  "longitude": 11.0806847,
  "address": "Johannesgasse 6",
  "city": "Nürnberg",
  "postalCode": "90402",
  "websiteUrl": null,
  "socialUrl": null,
  "phone": null,
  "email": null,
  "sourceUrl": "https://www.openstreetmap.org/node/1795698966"
 },
 {
  "provider": "osm",
  "providerResultId": "node/1803658387",
  "name": "Atelier Felis Leo Tattoo",
  "category": "tattoo",
  "latitude": 51.4629196,
  "longitude": 7.2280987,
  "address": "Wiemelhauser Straße 211a",
  "city": "Bochum",
  "postalCode": "44799",
  "websiteUrl": null,
  "socialUrl": null,
  "phone": null,
  "email": null,
  "sourceUrl": "https://www.openstreetmap.org/node/1803658387"
 },
 {
  "provider": "osm",
  "providerResultId": "node/1805100133",
  "name": "Tequila Wolf",
  "category": "tattoo",
  "latitude": 50.8586138,
  "longitude": 12.7573846,
  "address": "Helenenstraße 30",
  "city": "Limbach-Oberfrohna",
  "postalCode": "09212",
  "websiteUrl": null,
  "socialUrl": null,
  "phone": null,
  "email": null,
  "sourceUrl": "https://www.openstreetmap.org/node/1805100133"
 },
 {
  "provider": "osm",
  "providerResultId": "node/1806222578",
  "name": "SkinWorks",
  "category": "tattoo",
  "latitude": 50.9342797,
  "longitude": 6.936237,
  "address": "Händelstraße 2-4",
  "city": "Köln",
  "postalCode": "50674",
  "websiteUrl": "https://www.skinworks.de",
  "socialUrl": null,
  "phone": "+49 221 2407765",
  "email": null,
  "sourceUrl": "https://www.openstreetmap.org/node/1806222578"
 },
 {
  "provider": "osm",
  "providerResultId": "node/1811783433",
  "name": "Frankonia Ink",
  "category": "tattoo",
  "latitude": 49.447116,
  "longitude": 11.0782236,
  "address": "Vordere Sterngasse 25/27",
  "city": "Nürnberg",
  "postalCode": "90402",
  "websiteUrl": null,
  "socialUrl": null,
  "phone": "+49 911 226510",
  "email": null,
  "sourceUrl": "https://www.openstreetmap.org/node/1811783433"
 },
 {
  "provider": "osm",
  "providerResultId": "node/1843219400",
  "name": "Loreto",
  "category": "tattoo",
  "latitude": 51.5320884,
  "longitude": 9.9311701,
  "address": "Groner Straße 4",
  "city": "Göttingen",
  "postalCode": "37073",
  "websiteUrl": "http://tattoo-loreto.com/",
  "socialUrl": null,
  "phone": "+49 551 8207550",
  "email": null,
  "sourceUrl": "https://www.openstreetmap.org/node/1843219400"
 },
 {
  "provider": "osm",
  "providerResultId": "node/1855446109",
  "name": "Rebel Soul Tattoo",
  "category": "tattoo",
  "latitude": 54.5171599,
  "longitude": 9.5686833,
  "address": "Mönchenbrückstraße 3",
  "city": "Schleswig",
  "postalCode": "24837",
  "websiteUrl": null,
  "socialUrl": null,
  "phone": null,
  "email": null,
  "sourceUrl": "https://www.openstreetmap.org/node/1855446109"
 },
 {
  "provider": "osm",
  "providerResultId": "node/1856225781",
  "name": "Tattoo Fashion",
  "category": "tattoo",
  "latitude": 54.7893967,
  "longitude": 9.4317442,
  "address": "Große Straße 85",
  "city": "Flensburg",
  "postalCode": "24937",
  "websiteUrl": "https://tattoo-fashion-online.de/flensburg",
  "socialUrl": null,
  "phone": "+49 461 97888152",
  "email": null,
  "sourceUrl": "https://www.openstreetmap.org/node/1856225781"
 },
 {
  "provider": "osm",
  "providerResultId": "node/1860385956",
  "name": "Jiraiya",
  "category": "tattoo",
  "latitude": 52.5251096,
  "longitude": 13.3975179,
  "address": "Krausnickstraße 8",
  "city": "Berlin",
  "postalCode": "10115",
  "websiteUrl": "http://www.jiraiya-tattoo.de/",
  "socialUrl": null,
  "phone": null,
  "email": null,
  "sourceUrl": "https://www.openstreetmap.org/node/1860385956"
 },
 {
  "provider": "osm",
  "providerResultId": "node/1862751239",
  "name": "Courage",
  "category": "tattoo",
  "latitude": 49.3500034,
  "longitude": 7.1764021,
  "address": null,
  "city": null,
  "postalCode": null,
  "websiteUrl": null,
  "socialUrl": null,
  "phone": null,
  "email": null,
  "sourceUrl": "https://www.openstreetmap.org/node/1862751239"
 },
 {
  "provider": "osm",
  "providerResultId": "node/1863104222",
  "name": "Tattoo Piercing",
  "category": "tattoo",
  "latitude": 53.5959617,
  "longitude": 7.2084862,
  "address": "Neuer Weg 6",
  "city": "Norden",
  "postalCode": "26506",
  "websiteUrl": null,
  "socialUrl": null,
  "phone": null,
  "email": null,
  "sourceUrl": "https://www.openstreetmap.org/node/1863104222"
 },
 {
  "provider": "osm",
  "providerResultId": "node/1866174671",
  "name": "Black Diamond",
  "category": "tattoo",
  "latitude": 49.3460792,
  "longitude": 7.1762792,
  "address": null,
  "city": null,
  "postalCode": null,
  "websiteUrl": null,
  "socialUrl": null,
  "phone": null,
  "email": null,
  "sourceUrl": "https://www.openstreetmap.org/node/1866174671"
 },
 {
  "provider": "osm",
  "providerResultId": "node/1898986709",
  "name": "MCN-Tattoo",
  "category": "tattoo",
  "latitude": 49.8720784,
  "longitude": 8.1489537,
  "address": null,
  "city": null,
  "postalCode": null,
  "websiteUrl": null,
  "socialUrl": null,
  "phone": null,
  "email": null,
  "sourceUrl": "https://www.openstreetmap.org/node/1898986709"
 },
 {
  "provider": "osm",
  "providerResultId": "node/1905315992",
  "name": "Garden of Ink",
  "category": "tattoo",
  "latitude": 48.7088707,
  "longitude": 9.4630164,
  "address": "Bahnhofstraße 5",
  "city": "Reichenbach an der Fils",
  "postalCode": "73262",
  "websiteUrl": null,
  "socialUrl": null,
  "phone": "+49 7153 993848",
  "email": null,
  "sourceUrl": "https://www.openstreetmap.org/node/1905315992"
 },
 {
  "provider": "osm",
  "providerResultId": "node/1905359377",
  "name": "Tattoo´s by Kilian",
  "category": "tattoo",
  "latitude": 52.1456674,
  "longitude": 14.6630968,
  "address": null,
  "city": null,
  "postalCode": null,
  "websiteUrl": null,
  "socialUrl": null,
  "phone": "+49 3364 290087",
  "email": null,
  "sourceUrl": "https://www.openstreetmap.org/node/1905359377"
 },
 {
  "provider": "osm",
  "providerResultId": "node/1912760418",
  "name": "Pleasure and Pain",
  "category": "tattoo",
  "latitude": 50.9394033,
  "longitude": 6.941089,
  "address": "Friesenwall 82",
  "city": "Köln",
  "postalCode": "50672",
  "websiteUrl": null,
  "socialUrl": null,
  "phone": null,
  "email": null,
  "sourceUrl": "https://www.openstreetmap.org/node/1912760418"
 },
 {
  "provider": "osm",
  "providerResultId": "node/1913235398",
  "name": "Artistocrat",
  "category": "tattoo",
  "latitude": 53.5520406,
  "longitude": 9.9771363,
  "address": null,
  "city": null,
  "postalCode": null,
  "websiteUrl": null,
  "socialUrl": null,
  "phone": null,
  "email": null,
  "sourceUrl": "https://www.openstreetmap.org/node/1913235398"
 },
 {
  "provider": "osm",
  "providerResultId": "node/1915578960",
  "name": "The Temple",
  "category": "tattoo",
  "latitude": 52.4974496,
  "longitude": 13.3507765,
  "address": "Nollendorfstraße 24",
  "city": "Berlin",
  "postalCode": "10777",
  "websiteUrl": "http://www.temple-berlin.de",
  "socialUrl": null,
  "phone": "+49 30 26348472",
  "email": null,
  "sourceUrl": "https://www.openstreetmap.org/node/1915578960"
 },
 {
  "provider": "osm",
  "providerResultId": "node/1920577503",
  "name": "Gold Roses",
  "category": "tattoo",
  "latitude": 51.3906662,
  "longitude": 7.1845805,
  "address": "Grünstraße 39",
  "city": "Hattingen",
  "postalCode": "45525",
  "websiteUrl": null,
  "socialUrl": null,
  "phone": null,
  "email": null,
  "sourceUrl": "https://www.openstreetmap.org/node/1920577503"
 },
 {
  "provider": "osm",
  "providerResultId": "node/1930120276",
  "name": "studio 54",
  "category": "tattoo",
  "latitude": 49.9951625,
  "longitude": 8.2635945,
  "address": "Germanikusstraße 6",
  "city": "Mainz",
  "postalCode": "55131",
  "websiteUrl": null,
  "socialUrl": "https://instagram.com/studio54.mainz",
  "phone": null,
  "email": null,
  "sourceUrl": "https://www.openstreetmap.org/node/1930120276"
 },
 {
  "provider": "osm",
  "providerResultId": "node/1930514662",
  "name": "Outfit Tattoo",
  "category": "tattoo",
  "latitude": 52.1530732,
  "longitude": 14.6364454,
  "address": null,
  "city": null,
  "postalCode": null,
  "websiteUrl": null,
  "socialUrl": null,
  "phone": null,
  "email": null,
  "sourceUrl": "https://www.openstreetmap.org/node/1930514662"
 },
 {
  "provider": "osm",
  "providerResultId": "node/1941467065",
  "name": "Crizzl Tattoo",
  "category": "tattoo",
  "latitude": 51.6273082,
  "longitude": 8.7632268,
  "address": "Kirchstraße 39",
  "city": "Borchen",
  "postalCode": "33178",
  "websiteUrl": null,
  "socialUrl": "https://www.instagram.com/crizzl_tattoo",
  "phone": null,
  "email": null,
  "sourceUrl": "https://www.openstreetmap.org/node/1941467065"
 },
 {
  "provider": "osm",
  "providerResultId": "node/1944447927",
  "name": "Jewelz - Tattoo",
  "category": "tattoo",
  "latitude": 52.2725696,
  "longitude": 10.5360972,
  "address": null,
  "city": null,
  "postalCode": null,
  "websiteUrl": null,
  "socialUrl": null,
  "phone": null,
  "email": null,
  "sourceUrl": "https://www.openstreetmap.org/node/1944447927"
 },
 {
  "provider": "osm",
  "providerResultId": "node/1953306313",
  "name": "Schwarzarbeit",
  "category": "tattoo",
  "latitude": 53.0916211,
  "longitude": 8.8050883,
  "address": null,
  "city": null,
  "postalCode": null,
  "websiteUrl": "http://www.schwarzarbeit-tattoo.de/",
  "socialUrl": null,
  "phone": "+49 421 4316963",
  "email": null,
  "sourceUrl": "https://www.openstreetmap.org/node/1953306313"
 },
 {
  "provider": "osm",
  "providerResultId": "node/1960061512",
  "name": "Hell Yeah Tattoos",
  "category": "tattoo",
  "latitude": 49.0018531,
  "longitude": 8.3914356,
  "address": null,
  "city": "Karlsruhe",
  "postalCode": null,
  "websiteUrl": "https://hellyeah-tattoos.de",
  "socialUrl": null,
  "phone": "+49 721 6697590",
  "email": null,
  "sourceUrl": "https://www.openstreetmap.org/node/1960061512"
 },
 {
  "provider": "osm",
  "providerResultId": "node/1973585170",
  "name": "Fledimania",
  "category": "tattoo",
  "latitude": 50.1064177,
  "longitude": 8.6942156,
  "address": null,
  "city": null,
  "postalCode": null,
  "websiteUrl": null,
  "socialUrl": null,
  "phone": null,
  "email": null,
  "sourceUrl": "https://www.openstreetmap.org/node/1973585170"
 },
 {
  "provider": "osm",
  "providerResultId": "node/1974824630",
  "name": "Unchained Heart",
  "category": "tattoo",
  "latitude": 50.3610752,
  "longitude": 7.5993373,
  "address": "Eltzerhofstraße 6",
  "city": null,
  "postalCode": null,
  "websiteUrl": null,
  "socialUrl": null,
  "phone": null,
  "email": null,
  "sourceUrl": "https://www.openstreetmap.org/node/1974824630"
 },
 {
  "provider": "osm",
  "providerResultId": "node/1976876860",
  "name": "Para Siempre",
  "category": "tattoo",
  "latitude": 49.740492,
  "longitude": 6.6325667,
  "address": null,
  "city": null,
  "postalCode": null,
  "websiteUrl": null,
  "socialUrl": null,
  "phone": null,
  "email": null,
  "sourceUrl": "https://www.openstreetmap.org/node/1976876860"
 },
 {
  "provider": "osm",
  "providerResultId": "node/1978500803",
  "name": "Boris Schormann",
  "category": "tattoo",
  "latitude": 49.7418585,
  "longitude": 6.6334007,
  "address": null,
  "city": null,
  "postalCode": null,
  "websiteUrl": null,
  "socialUrl": null,
  "phone": null,
  "email": null,
  "sourceUrl": "https://www.openstreetmap.org/node/1978500803"
 },
 {
  "provider": "osm",
  "providerResultId": "node/1979509702",
  "name": "Aufewig",
  "category": "tattoo",
  "latitude": 50.7398469,
  "longitude": 7.0918624,
  "address": "Dorotheenstraße 58",
  "city": "Bonn",
  "postalCode": "53111",
  "websiteUrl": "https://www.aufewig-tattoo.de/",
  "socialUrl": null,
  "phone": null,
  "email": "aufewig.tattoo@live.de",
  "sourceUrl": "https://www.openstreetmap.org/node/1979509702"
 },